{
"type": "FeatureCollection",
"name": "crossings_refined",
"crs": { "type": "name", "properties": { "name": "urn:ogc:def:crs:OGC:1.3:CRS84" } },
"features": [
{ "type": "Feature", "properties": { "crossing_id": "crossing_0000", "name": "nan", "road_type": "track", "trail_mile": 8.0, "vehicle_access": true, "trailhead": true, "schema_version": "1.0", "crossing_class": "road_crossing" }, "geometry": { "type": "Point", "coordinates": [ -73.1238627, 42.8277653 ] } },
{ "type": "Feature", "properties": { "crossing_id": "crossing_0001", "name": "Old Rootville Road", "road_type": "track", "trail_mile": 49.8, "vehicle_access": true, "trailhead": true, "schema_version": "1.0", "crossing_class": "road_crossing" }, "geometry": { "type": "Point", "coordinates": [ -73.008364599999979, 43.1540226 ] } },
{ "type": "Feature", "properties": { "crossing_id": "crossing_0002", "name": "Vermont Route 125", "road_type": "secondary", "trail_mile": 137.4, "vehicle_access": true, "trailhead": true, "schema_version": "1.0", "crossing_class": "road_crossing" }, "geometry": { "type": "Point", "coordinates": [ -72.9500135, 43.9370099 ] } },
{ "type": "Feature", "properties": { "crossing_id": "crossing_0003", "name": "Risky Ranch Road", "road_type": "unclassified", "trail_mile": 2.6, "vehicle_access": true, "trailhead": true, "schema_version": "1.0", "crossing_class": "road_crossing" }, "geometry": { "type": "Point", "coordinates": [ -73.1368819, 42.7689983 ] } },
{ "type": "Feature", "properties": { "crossing_id": "crossing_0004", "name": "Stage Coach Road", "road_type": "track", "trail_mile": 10.6, "vehicle_access": true, "trailhead": true, "schema_version": "1.0", "crossing_class": "road_crossing" }, "geometry": { "type": "Point", "coordinates": [ -73.118626099999986, 42.850199 ] } },
{ "type": "Feature", "properties": { "crossing_id": "crossing_0005", "name": "County Road", "road_type": "unclassified", "trail_mile": 3.2, "vehicle_access": true, "trailhead": true, "schema_version": "1.0", "crossing_class": "road_crossing" }, "geometry": { "type": "Point", "coordinates": [ -73.1330951, 42.7750139 ] } },
{ "type": "Feature", "properties": { "crossing_id": "crossing_0006", "name": "Mad Tom Notch Road", "road_type": "residential", "trail_mile": 60.3, "vehicle_access": true, "trailhead": true, "schema_version": "1.0", "crossing_class": "road_crossing" }, "geometry": { "type": "Point", "coordinates": [ -72.9383826, 43.2577239 ] } },
{ "type": "Feature", "properties": { "crossing_id": "crossing_0007", "name": "nan", "road_type": "service", "trail_mile": 187.6, "vehicle_access": true, "trailhead": true, "schema_version": "1.0", "crossing_class": "road_crossing" }, "geometry": { "type": "Point", "coordinates": [ -72.9153557, 44.382708 ] } },
{ "type": "Feature", "properties": { "crossing_id": "crossing_0008", "name": "Notch Road", "road_type": "residential", "trail_mile": 187.7, "vehicle_access": true, "trailhead": true, "schema_version": "1.0", "crossing_class": "road_crossing" }, "geometry": { "type": "Point", "coordinates": [ -72.914699, 44.383635 ] } },
{ "type": "Feature", "properties": { "crossing_id": "crossing_0009", "name": "Vermont Route 17", "road_type": "secondary", "trail_mile": 166.7, "vehicle_access": true, "trailhead": true, "schema_version": "1.0", "crossing_class": "road_crossing" }, "geometry": { "type": "Point", "coordinates": [ -72.9316006, 44.2110116 ] } },
{ "type": "Feature", "properties": { "crossing_id": "crossing_0010", "name": "nan", "road_type": "track", "trail_mile": 219.7, "vehicle_access": true, "trailhead": true, "schema_version": "1.0", "crossing_class": "road_crossing" }, "geometry": { "type": "Point", "coordinates": [ -72.7181316, 44.6028654 ] } },
{ "type": "Feature", "properties": { "crossing_id": "crossing_0011", "name": "nan", "road_type": "service", "trail_mile": 223.0, "vehicle_access": true, "trailhead": true, "schema_version": "1.0", "crossing_class": "road_crossing" }, "geometry": { "type": "Point", "coordinates": [ -72.723208, 44.639407 ] } },
{ "type": "Feature", "properties": { "crossing_id": "crossing_0012", "name": "nan", "road_type": "service", "trail_mile": 223.1, "vehicle_access": true, "trailhead": true, "schema_version": "1.0", "crossing_class": "road_crossing" }, "geometry": { "type": "Point", "coordinates": [ -72.722589, 44.640051 ] } },
{ "type": "Feature", "properties": { "crossing_id": "crossing_0013", "name": "Duxbury Road", "road_type": "tertiary", "trail_mile": 184.3, "vehicle_access": true, "trailhead": true, "schema_version": "1.0", "crossing_class": "road_crossing" }, "geometry": { "type": "Point", "coordinates": [ -72.8792776, 44.3697031 ] } },
{ "type": "Feature", "properties": { "crossing_id": "crossing_0014", "name": "Mountain View Drive", "road_type": "residential", "trail_mile": 187.5, "vehicle_access": true, "trailhead": true, "schema_version": "1.0", "crossing_class": "road_crossing" }, "geometry": { "type": "Point", "coordinates": [ -72.916501, 44.381337 ] } },
{ "type": "Feature", "properties": { "crossing_id": "crossing_0015", "name": "Belvidere Road", "road_type": "secondary", "trail_mile": 244.9, "vehicle_access": true, "trailhead": true, "schema_version": "1.0", "crossing_class": "road_crossing" }, "geometry": { "type": "Point", "coordinates": [ -72.586855, 44.763791 ] } },
{ "type": "Feature", "properties": { "crossing_id": "crossing_0016", "name": "Plot Road", "road_type": "residential", "trail_mile": 228.1, "vehicle_access": true, "trailhead": true, "schema_version": "1.0", "crossing_class": "road_crossing" }, "geometry": { "type": "Point", "coordinates": [ -72.7194922, 44.6813676 ] } },
{ "type": "Feature", "properties": { "crossing_id": "crossing_0017", "name": "Hog Back Road", "road_type": "tertiary", "trail_mile": 224.6, "vehicle_access": true, "trailhead": true, "schema_version": "1.0", "crossing_class": "road_crossing" }, "geometry": { "type": "Point", "coordinates": [ -72.7287879, 44.6521442 ] } },
{ "type": "Feature", "properties": { "crossing_id": "crossing_0018", "name": "Prospect Rock Road", "road_type": "residential", "trail_mile": 225.6, "vehicle_access": true, "trailhead": true, "schema_version": "1.0", "crossing_class": "road_crossing" }, "geometry": { "type": "Point", "coordinates": [ -72.7225538, 44.6580792 ] } },
{ "type": "Feature", "properties": { "crossing_id": "crossing_0019", "name": "Codding Hollow Road", "road_type": "residential", "trail_mile": 230.6, "vehicle_access": true, "trailhead": true, "schema_version": "1.0", "crossing_class": "road_crossing" }, "geometry": { "type": "Point", "coordinates": [ -72.7114559, 44.7078154 ] } },
{ "type": "Feature", "properties": { "crossing_id": "crossing_0020", "name": "nan", "road_type": "path", "trail_mile": 69.4, "vehicle_access": true, "trailhead": true, "schema_version": "1.0", "crossing_class": "road_crossing" }, "geometry": { "type": "Point", "coordinates": [ -72.9529232, 43.3452601 ] } },
{ "type": "Feature", "properties": { "crossing_id": "crossing_0021", "name": "Vermont Route 105", "road_type": "primary", "trail_mile": 270.3, "vehicle_access": true, "trailhead": true, "schema_version": "1.0", "crossing_class": "road_crossing" }, "geometry": { "type": "Point", "coordinates": [ -72.5040809, 44.9866699 ] } },
{ "type": "Feature", "properties": { "crossing_id": "crossing_0022", "name": "Vermont Route 242", "road_type": "secondary", "trail_mile": 261.5, "vehicle_access": true, "trailhead": true, "schema_version": "1.0", "crossing_class": "road_crossing" }, "geometry": { "type": "Point", "coordinates": [ -72.504206, 44.912654 ] } },
{ "type": "Feature", "properties": { "crossing_id": "crossing_0023", "name": "Route 58", "road_type": "tertiary", "trail_mile": 254.5, "vehicle_access": true, "trailhead": true, "schema_version": "1.0", "crossing_class": "road_crossing" }, "geometry": { "type": "Point", "coordinates": [ -72.525149, 44.84146 ] } },
{ "type": "Feature", "properties": { "crossing_id": "crossing_0024", "name": "South Park Road", "road_type": "residential", "trail_mile": 111.4, "vehicle_access": true, "trailhead": true, "schema_version": "1.0", "crossing_class": "road_crossing" }, "geometry": { "type": "Point", "coordinates": [ -72.8614181, 43.7140292 ] } },
{ "type": "Feature", "properties": { "crossing_id": "crossing_0025", "name": "Forest Road 384", "road_type": "track", "trail_mile": 36.3, "vehicle_access": true, "trailhead": true, "schema_version": "1.0", "crossing_class": "road_crossing" }, "geometry": { "type": "Point", "coordinates": [ -72.971634599999987, 43.0538393 ] } },
{ "type": "Feature", "properties": { "crossing_id": "crossing_0026", "name": "Upper Cold River Road", "road_type": "unclassified", "trail_mile": 93.7, "vehicle_access": true, "trailhead": true, "schema_version": "1.0", "crossing_class": "road_crossing" }, "geometry": { "type": "Point", "coordinates": [ -72.8569342, 43.5501922 ] } },
{ "type": "Feature", "properties": { "crossing_id": "crossing_0027", "name": "Seasonal Forestry Road", "road_type": "residential", "trail_mile": 72.6, "vehicle_access": true, "trailhead": true, "schema_version": "1.0", "crossing_class": "road_crossing" }, "geometry": { "type": "Point", "coordinates": [ -72.961266600000016, 43.3712987 ] } },
{ "type": "Feature", "properties": { "crossing_id": "crossing_0028", "name": "Sugar Hill Road", "road_type": "residential", "trail_mile": 81.2, "vehicle_access": true, "trailhead": true, "schema_version": "1.0", "crossing_class": "road_crossing" }, "geometry": { "type": "Point", "coordinates": [ -72.935771799999984, 43.4548576 ] } },
{ "type": "Feature", "properties": { "crossing_id": "crossing_0029", "name": "Kieffer Road", "road_type": "unclassified", "trail_mile": 91.6, "vehicle_access": true, "trailhead": true, "schema_version": "1.0", "crossing_class": "road_crossing" }, "geometry": { "type": "Point", "coordinates": [ -72.8736441, 43.534185 ] } },
{ "type": "Feature", "properties": { "crossing_id": "crossing_0030", "name": "Lottery Road", "road_type": "residential", "trail_mile": 89.8, "vehicle_access": true, "trailhead": true, "schema_version": "1.0", "crossing_class": "road_crossing" }, "geometry": { "type": "Point", "coordinates": [ -72.899795, 43.527793 ] } },
{ "type": "Feature", "properties": { "crossing_id": "crossing_0031", "name": "Cold River Road", "road_type": "tertiary", "trail_mile": 92.0, "vehicle_access": true, "trailhead": true, "schema_version": "1.0", "crossing_class": "road_crossing" }, "geometry": { "type": "Point", "coordinates": [ -72.872242, 43.537763 ] } },
{ "type": "Feature", "properties": { "crossing_id": "crossing_0032", "name": "Clement Shelter Road", "road_type": "residential", "trail_mile": 94.5, "vehicle_access": true, "trailhead": true, "schema_version": "1.0", "crossing_class": "road_crossing" }, "geometry": { "type": "Point", "coordinates": [ -72.8551287, 43.557217 ] } },
{ "type": "Feature", "properties": { "crossing_id": "crossing_0033", "name": "Dean Trail", "road_type": "path", "trail_mile": 177.0, "vehicle_access": true, "trailhead": true, "schema_version": "1.0", "crossing_class": "road_crossing" }, "geometry": { "type": "Point", "coordinates": [ -72.882418299999983, 44.3035779 ] } },
{ "type": "Feature", "properties": { "crossing_id": "crossing_0034", "name": "Allis Trail", "road_type": "path", "trail_mile": 176.6, "vehicle_access": true, "trailhead": true, "schema_version": "1.0", "crossing_class": "road_crossing" }, "geometry": { "type": "Point", "coordinates": [ -72.8796747, 44.3008604 ] } },
{ "type": "Feature", "properties": { "crossing_id": "crossing_0035", "name": "Allis Trail", "road_type": "path", "trail_mile": 177.0, "vehicle_access": true, "trailhead": true, "schema_version": "1.0", "crossing_class": "road_crossing" }, "geometry": { "type": "Point", "coordinates": [ -72.882418299999983, 44.3035779 ] } },
{ "type": "Feature", "properties": { "crossing_id": "crossing_0036", "name": "Forest City Trail", "road_type": "path", "trail_mile": 176.8, "vehicle_access": true, "trailhead": true, "schema_version": "1.0", "crossing_class": "road_crossing" }, "geometry": { "type": "Point", "coordinates": [ -72.8830496, 44.3015401 ] } },
{ "type": "Feature", "properties": { "crossing_id": "crossing_0037", "name": "Alpine Trail", "road_type": "path", "trail_mile": 179.5, "vehicle_access": true, "trailhead": true, "schema_version": "1.0", "crossing_class": "road_crossing" }, "geometry": { "type": "Point", "coordinates": [ -72.87914, 44.329083 ] } },
{ "type": "Feature", "properties": { "crossing_id": "crossing_0038", "name": "Alpine Trail", "road_type": "path", "trail_mile": 178.4, "vehicle_access": true, "trailhead": true, "schema_version": "1.0", "crossing_class": "road_crossing" }, "geometry": { "type": "Point", "coordinates": [ -72.8869537, 44.3188206 ] } },
{ "type": "Feature", "properties": { "crossing_id": "crossing_0039", "name": "Stratton Ridge Trail", "road_type": "path", "trail_mile": 40.8, "vehicle_access": true, "trailhead": true, "schema_version": "1.0", "crossing_class": "road_crossing" }, "geometry": { "type": "Point", "coordinates": [ -72.9249577, 43.0862857 ] } },
{ "type": "Feature", "properties": { "crossing_id": "crossing_0040", "name": "Wallace Cutoff", "road_type": "path", "trail_mile": 203.9, "vehicle_access": true, "trailhead": true, "schema_version": "1.0", "crossing_class": "road_crossing" }, "geometry": { "type": "Point", "coordinates": [ -72.81951, 44.513842 ] } },
{ "type": "Feature", "properties": { "crossing_id": "crossing_0041", "name": "nan", "road_type": "path", "trail_mile": 202.8, "vehicle_access": true, "trailhead": true, "schema_version": "1.0", "crossing_class": "road_crossing" }, "geometry": { "type": "Point", "coordinates": [ -72.8284886, 44.5024777 ] } },
{ "type": "Feature", "properties": { "crossing_id": "crossing_0042", "name": "nan", "road_type": "motorway", "trail_mile": 187.5, "vehicle_access": true, "trailhead": true, "schema_version": "1.0", "crossing_class": "road_crossing" }, "geometry": { "type": "Point", "coordinates": [ -72.916767444556143, 44.380719411100387 ] } },
{ "type": "Feature", "properties": { "crossing_id": "crossing_0043", "name": "nan", "road_type": "path", "trail_mile": 56.8, "vehicle_access": true, "trailhead": true, "schema_version": "1.0", "crossing_class": "road_crossing" }, "geometry": { "type": "Point", "coordinates": [ -72.951725499999981, 43.2226949 ] } },
{ "type": "Feature", "properties": { "crossing_id": "crossing_0044", "name": "nan", "road_type": "path", "trail_mile": 163.5, "vehicle_access": true, "trailhead": true, "schema_version": "1.0", "crossing_class": "road_crossing" }, "geometry": { "type": "Point", "coordinates": [ -72.9294043, 44.1801817 ] } },
{ "type": "Feature", "properties": { "crossing_id": "crossing_0045", "name": "nan", "road_type": "path", "trail_mile": 164.2, "vehicle_access": true, "trailhead": true, "schema_version": "1.0", "crossing_class": "road_crossing" }, "geometry": { "type": "Point", "coordinates": [ -72.9296345, 44.1891553 ] } },
{ "type": "Feature", "properties": { "crossing_id": "crossing_0046", "name": "nan", "road_type": "track_grade3", "trail_mile": 164.3, "vehicle_access": true, "trailhead": true, "schema_version": "1.0", "crossing_class": "road_crossing" }, "geometry": { "type": "Point", "coordinates": [ -72.9304166, 44.1903161 ] } },
{ "type": "Feature", "properties": { "crossing_id": "crossing_0047", "name": "nan", "road_type": "service", "trail_mile": 205.3, "vehicle_access": true, "trailhead": true, "schema_version": "1.0", "crossing_class": "road_crossing" }, "geometry": { "type": "Point", "coordinates": [ -72.8156303, 44.5279162 ] } },
{ "type": "Feature", "properties": { "crossing_id": "crossing_0048", "name": "nan", "road_type": "service", "trail_mile": 205.0, "vehicle_access": true, "trailhead": true, "schema_version": "1.0", "crossing_class": "road_crossing" }, "geometry": { "type": "Point", "coordinates": [ -72.8164212, 44.5251848 ] } },
{ "type": "Feature", "properties": { "crossing_id": "crossing_0049", "name": "Beane Trail", "road_type": "path", "trail_mile": 169.2, "vehicle_access": true, "trailhead": true, "schema_version": "1.0", "crossing_class": "road_crossing" }, "geometry": { "type": "Point", "coordinates": [ -72.929955299999989, 44.2365623 ] } },
{ "type": "Feature", "properties": { "crossing_id": "crossing_0050", "name": "Hedgehog Brook Trail", "road_type": "path", "trail_mile": 172.9, "vehicle_access": true, "trailhead": true, "schema_version": "1.0", "crossing_class": "road_crossing" }, "geometry": { "type": "Point", "coordinates": [ -72.8971118, 44.2627795 ] } },
{ "type": "Feature", "properties": { "crossing_id": "crossing_0051", "name": "Jerusalem Trail", "road_type": "path", "trail_mile": 163.5, "vehicle_access": true, "trailhead": true, "schema_version": "1.0", "crossing_class": "road_crossing" }, "geometry": { "type": "Point", "coordinates": [ -72.9302716, 44.1795889 ] } },
{ "type": "Feature", "properties": { "crossing_id": "crossing_0052", "name": "nan", "road_type": "path", "trail_mile": 193.5, "vehicle_access": true, "trailhead": true, "schema_version": "1.0", "crossing_class": "road_crossing" }, "geometry": { "type": "Point", "coordinates": [ -72.876223200000013, 44.4308207 ] } },
{ "type": "Feature", "properties": { "crossing_id": "crossing_0053", "name": "Cliff Trail", "road_type": "path", "trail_mile": 206.2, "vehicle_access": true, "trailhead": true, "schema_version": "1.0", "crossing_class": "road_crossing" }, "geometry": { "type": "Point", "coordinates": [ -72.817032, 44.5394771 ] } },
{ "type": "Feature", "properties": { "crossing_id": "crossing_0054", "name": "Lake Mansfield Trail", "road_type": "path", "trail_mile": 200.6, "vehicle_access": true, "trailhead": true, "schema_version": "1.0", "crossing_class": "road_crossing" }, "geometry": { "type": "Point", "coordinates": [ -72.8274604, 44.4850064 ] } },
{ "type": "Feature", "properties": { "crossing_id": "crossing_0055", "name": "Hell Brook Trail", "road_type": "path", "trail_mile": 206.9, "vehicle_access": true, "trailhead": true, "schema_version": "1.0", "crossing_class": "road_crossing" }, "geometry": { "type": "Point", "coordinates": [ -72.811687099999986, 44.5456401 ] } },
{ "type": "Feature", "properties": { "crossing_id": "crossing_0056", "name": "Hell Brook Cut Off", "road_type": "path", "trail_mile": 207.1, "vehicle_access": true, "trailhead": true, "schema_version": "1.0", "crossing_class": "road_crossing" }, "geometry": { "type": "Point", "coordinates": [ -72.809393, 44.5428908 ] } },
{ "type": "Feature", "properties": { "crossing_id": "crossing_0057", "name": "Connector", "road_type": "path", "trail_mile": 205.9, "vehicle_access": true, "trailhead": true, "schema_version": "1.0", "crossing_class": "road_crossing" }, "geometry": { "type": "Point", "coordinates": [ -72.817646699999983, 44.5354421 ] } },
{ "type": "Feature", "properties": { "crossing_id": "crossing_0058", "name": "Halfway House Trail", "road_type": "path", "trail_mile": 205.4, "vehicle_access": true, "trailhead": true, "schema_version": "1.0", "crossing_class": "road_crossing" }, "geometry": { "type": "Point", "coordinates": [ -72.8171716, 44.5296635 ] } },
{ "type": "Feature", "properties": { "crossing_id": "crossing_0059", "name": "Forehead Bypass", "road_type": "path", "trail_mile": 205.0, "vehicle_access": true, "trailhead": true, "schema_version": "1.0", "crossing_class": "road_crossing" }, "geometry": { "type": "Point", "coordinates": [ -72.8164009, 44.5247861 ] } },
{ "type": "Feature", "properties": { "crossing_id": "crossing_0060", "name": "Forehead Bypass", "road_type": "path", "trail_mile": 204.1, "vehicle_access": true, "trailhead": true, "schema_version": "1.0", "crossing_class": "road_crossing" }, "geometry": { "type": "Point", "coordinates": [ -72.817592, 44.515108 ] } },
{ "type": "Feature", "properties": { "crossing_id": "crossing_0061", "name": "Profanity Trail", "road_type": "path", "trail_mile": 207.1, "vehicle_access": true, "trailhead": true, "schema_version": "1.0", "crossing_class": "road_crossing" }, "geometry": { "type": "Point", "coordinates": [ -72.8098971, 44.5431299 ] } },
{ "type": "Feature", "properties": { "crossing_id": "crossing_0062", "name": "Profanity Trail", "road_type": "path", "trail_mile": 206.4, "vehicle_access": true, "trailhead": true, "schema_version": "1.0", "crossing_class": "road_crossing" }, "geometry": { "type": "Point", "coordinates": [ -72.8156507, 44.5419887 ] } },
{ "type": "Feature", "properties": { "crossing_id": "crossing_0063", "name": "Adams Apple Trail", "road_type": "path", "trail_mile": 206.9, "vehicle_access": true, "trailhead": true, "schema_version": "1.0", "crossing_class": "road_crossing" }, "geometry": { "type": "Point", "coordinates": [ -72.811687099999986, 44.5456401 ] } },
{ "type": "Feature", "properties": { "crossing_id": "crossing_0064", "name": "nan", "road_type": "path", "trail_mile": 181.6, "vehicle_access": true, "trailhead": true, "schema_version": "1.0", "crossing_class": "road_crossing" }, "geometry": { "type": "Point", "coordinates": [ -72.864989, 44.349509 ] } },
{ "type": "Feature", "properties": { "crossing_id": "crossing_0065", "name": "nan", "road_type": "service", "trail_mile": 205.3, "vehicle_access": true, "trailhead": true, "schema_version": "1.0", "crossing_class": "road_crossing" }, "geometry": { "type": "Point", "coordinates": [ -72.816202599999983, 44.5285713 ] } },
{ "type": "Feature", "properties": { "crossing_id": "crossing_0066", "name": "nan", "road_type": "service", "trail_mile": 205.2, "vehicle_access": true, "trailhead": true, "schema_version": "1.0", "crossing_class": "road_crossing" }, "geometry": { "type": "Point", "coordinates": [ -72.8163435, 44.5271506 ] } },
{ "type": "Feature", "properties": { "crossing_id": "crossing_0067", "name": "Mountain Road", "road_type": "secondary", "trail_mile": 209.1, "vehicle_access": true, "trailhead": true, "schema_version": "1.0", "crossing_class": "road_crossing" }, "geometry": { "type": "Point", "coordinates": [ -72.790378299999986, 44.5355636 ] } },
{ "type": "Feature", "properties": { "crossing_id": "crossing_0068", "name": "Barnes Camp Loop", "road_type": "path", "trail_mile": 210.1, "vehicle_access": true, "trailhead": true, "schema_version": "1.0", "crossing_class": "road_crossing" }, "geometry": { "type": "Point", "coordinates": [ -72.787380199999987, 44.539603 ] } },
{ "type": "Feature", "properties": { "crossing_id": "crossing_0069", "name": "Forester's Trail", "road_type": "path", "trail_mile": 247.5, "vehicle_access": true, "trailhead": true, "schema_version": "1.0", "crossing_class": "road_crossing" }, "geometry": { "type": "Point", "coordinates": [ -72.5532582, 44.7741113 ] } },
{ "type": "Feature", "properties": { "crossing_id": "crossing_0070", "name": "Journey's End Trail", "road_type": "path", "trail_mile": 273.0, "vehicle_access": true, "trailhead": true, "schema_version": "1.0", "crossing_class": "road_crossing" }, "geometry": { "type": "Point", "coordinates": [ -72.4881953, 45.0086008 ] } },
{ "type": "Feature", "properties": { "crossing_id": "crossing_0071", "name": "nan", "road_type": "footway", "trail_mile": 159.0, "vehicle_access": true, "trailhead": true, "schema_version": "1.0", "crossing_class": "road_crossing" }, "geometry": { "type": "Point", "coordinates": [ -72.928303, 44.127291 ] } },
{ "type": "Feature", "properties": { "crossing_id": "crossing_0072", "name": "nan", "road_type": "path", "trail_mile": 165.4, "vehicle_access": true, "trailhead": true, "schema_version": "1.0", "crossing_class": "road_crossing" }, "geometry": { "type": "Point", "coordinates": [ -72.9350113, 44.2017912 ] } },
{ "type": "Feature", "properties": { "crossing_id": "crossing_0073", "name": "Eddy's Path", "road_type": "path", "trail_mile": 203.2, "vehicle_access": true, "trailhead": true, "schema_version": "1.0", "crossing_class": "road_crossing" }, "geometry": { "type": "Point", "coordinates": [ -72.8251368, 44.5070504 ] } },
{ "type": "Feature", "properties": { "crossing_id": "crossing_0074", "name": "Tear Drop Trail", "road_type": "path", "trail_mile": 204.9, "vehicle_access": true, "trailhead": true, "schema_version": "1.0", "crossing_class": "road_crossing" }, "geometry": { "type": "Point", "coordinates": [ -72.8165658, 44.5240092 ] } },
{ "type": "Feature", "properties": { "crossing_id": "crossing_0075", "name": "Elephant's Head Loop Trail", "road_type": "path", "trail_mile": 213.3, "vehicle_access": true, "trailhead": true, "schema_version": "1.0", "crossing_class": "road_crossing" }, "geometry": { "type": "Point", "coordinates": [ -72.7729054, 44.5569163 ] } },
{ "type": "Feature", "properties": { "crossing_id": "crossing_0076", "name": "Elephant's Head Loop Trail", "road_type": "path", "trail_mile": 212.6, "vehicle_access": true, "trailhead": true, "schema_version": "1.0", "crossing_class": "road_crossing" }, "geometry": { "type": "Point", "coordinates": [ -72.781162499999979, 44.5522939 ] } },
{ "type": "Feature", "properties": { "crossing_id": "crossing_0077", "name": "Burrows Trail", "road_type": "path", "trail_mile": 178.7, "vehicle_access": true, "trailhead": true, "schema_version": "1.0", "crossing_class": "road_crossing" }, "geometry": { "type": "Point", "coordinates": [ -72.885526, 44.3218974 ] } },
{ "type": "Feature", "properties": { "crossing_id": "crossing_0078", "name": "Upper Chilcoot", "road_type": "track", "trail_mile": 215.0, "vehicle_access": true, "trailhead": true, "schema_version": "1.0", "crossing_class": "road_crossing" }, "geometry": { "type": "Point", "coordinates": [ -72.753969123569888, 44.567961869849647 ] } },
{ "type": "Feature", "properties": { "crossing_id": "crossing_0079", "name": "Upper Chilcoot", "road_type": "track", "trail_mile": 214.6, "vehicle_access": true, "trailhead": true, "schema_version": "1.0", "crossing_class": "road_crossing" }, "geometry": { "type": "Point", "coordinates": [ -72.7562741, 44.5635283 ] } },
{ "type": "Feature", "properties": { "crossing_id": "crossing_0080", "name": "nan", "road_type": "path", "trail_mile": 137.9, "vehicle_access": true, "trailhead": true, "schema_version": "1.0", "crossing_class": "road_crossing" }, "geometry": { "type": "Point", "coordinates": [ -72.9461217, 43.9377362 ] } },
{ "type": "Feature", "properties": { "crossing_id": "crossing_0081", "name": "Lakeview Trail", "road_type": "path", "trail_mile": 205.0, "vehicle_access": true, "trailhead": true, "schema_version": "1.0", "crossing_class": "road_crossing" }, "geometry": { "type": "Point", "coordinates": [ -72.8167713, 44.5254258 ] } },
{ "type": "Feature", "properties": { "crossing_id": "crossing_0082", "name": "Subway", "road_type": "path", "trail_mile": 206.3, "vehicle_access": true, "trailhead": true, "schema_version": "1.0", "crossing_class": "road_crossing" }, "geometry": { "type": "Point", "coordinates": [ -72.8168398, 44.5400575 ] } },
{ "type": "Feature", "properties": { "crossing_id": "crossing_0083", "name": "Subway", "road_type": "path", "trail_mile": 206.2, "vehicle_access": true, "trailhead": true, "schema_version": "1.0", "crossing_class": "road_crossing" }, "geometry": { "type": "Point", "coordinates": [ -72.817032, 44.5394771 ] } },
{ "type": "Feature", "properties": { "crossing_id": "crossing_0084", "name": "Maple Ridge Trail", "road_type": "path", "trail_mile": 204.6, "vehicle_access": true, "trailhead": true, "schema_version": "1.0", "crossing_class": "road_crossing" }, "geometry": { "type": "Point", "coordinates": [ -72.818837499999987, 44.5205679 ] } },
{ "type": "Feature", "properties": { "crossing_id": "crossing_0085", "name": "Lamoille Valley Rail Trail", "road_type": "cycleway", "trail_mile": 223.2, "vehicle_access": true, "trailhead": true, "schema_version": "1.0", "crossing_class": "road_crossing" }, "geometry": { "type": "Point", "coordinates": [ -72.7216143, 44.6417247 ] } },
{ "type": "Feature", "properties": { "crossing_id": "crossing_0086", "name": "Baker Peak Trail", "road_type": "footway", "trail_mile": 67.5, "vehicle_access": true, "trailhead": true, "schema_version": "1.0", "crossing_class": "road_crossing" }, "geometry": { "type": "Point", "coordinates": [ -72.9652738, 43.32341060000001 ] } },
{ "type": "Feature", "properties": { "crossing_id": "crossing_0087", "name": "Lake Trail", "road_type": "footway", "trail_mile": 65.7, "vehicle_access": true, "trailhead": true, "schema_version": "1.0", "crossing_class": "road_crossing" }, "geometry": { "type": "Point", "coordinates": [ -72.9584417, 43.30880830000001 ] } },
{ "type": "Feature", "properties": { "crossing_id": "crossing_0088", "name": "Sterling Pond Trail", "road_type": "path", "trail_mile": 212.9, "vehicle_access": true, "trailhead": true, "schema_version": "1.0", "crossing_class": "road_crossing" }, "geometry": { "type": "Point", "coordinates": [ -72.777978, 44.55562 ] } },
{ "type": "Feature", "properties": { "crossing_id": "crossing_0089", "name": "Monroe Trail", "road_type": "path", "trail_mile": 178.7, "vehicle_access": true, "trailhead": true, "schema_version": "1.0", "crossing_class": "road_crossing" }, "geometry": { "type": "Point", "coordinates": [ -72.885526, 44.3218974 ] } },
{ "type": "Feature", "properties": { "crossing_id": "crossing_0090", "name": "Chilcoot Pass Trail", "road_type": "path", "trail_mile": 215.1, "vehicle_access": true, "trailhead": true, "schema_version": "1.0", "crossing_class": "road_crossing" }, "geometry": { "type": "Point", "coordinates": [ -72.753245, 44.5687066 ] } },
{ "type": "Feature", "properties": { "crossing_id": "crossing_0091", "name": "Whiteface Trail", "road_type": "path", "trail_mile": 216.4, "vehicle_access": true, "trailhead": true, "schema_version": "1.0", "crossing_class": "road_crossing" }, "geometry": { "type": "Point", "coordinates": [ -72.7409422, 44.5788878 ] } },
{ "type": "Feature", "properties": { "crossing_id": "crossing_0092", "name": "Harrington's View", "road_type": "path", "trail_mile": 194.4, "vehicle_access": true, "trailhead": true, "schema_version": "1.0", "crossing_class": "road_crossing" }, "geometry": { "type": "Point", "coordinates": [ -72.86538640000002, 44.4348904 ] } },
{ "type": "Feature", "properties": { "crossing_id": "crossing_0093", "name": "Old Turnpike Road", "road_type": "track", "trail_mile": 109.5, "vehicle_access": true, "trailhead": true, "schema_version": "1.0", "crossing_class": "road_crossing" }, "geometry": { "type": "Point", "coordinates": [ -72.8561087, 43.6957877 ] } },
{ "type": "Feature", "properties": { "crossing_id": "crossing_0094", "name": "nan", "road_type": "path", "trail_mile": 15.8, "vehicle_access": true, "trailhead": true, "schema_version": "1.0", "crossing_class": "road_crossing" }, "geometry": { "type": "Point", "coordinates": [ -73.0965245, 42.8879868 ] } },
{ "type": "Feature", "properties": { "crossing_id": "crossing_0095", "name": "Branch Pond Trail", "road_type": "path", "trail_mile": 48.7, "vehicle_access": true, "trailhead": true, "schema_version": "1.0", "crossing_class": "road_crossing" }, "geometry": { "type": "Point", "coordinates": [ -72.9916436, 43.1503827 ] } },
{ "type": "Feature", "properties": { "crossing_id": "crossing_0096", "name": "Forest Highway 71", "road_type": "unclassified", "trail_mile": 35.0, "vehicle_access": true, "trailhead": true, "schema_version": "1.0", "crossing_class": "road_crossing" }, "geometry": { "type": "Point", "coordinates": [ -72.9902033, 43.0538252 ] } },
{ "type": "Feature", "properties": { "crossing_id": "crossing_0097", "name": "nan", "road_type": "track_grade5", "trail_mile": 22.8, "vehicle_access": true, "trailhead": true, "schema_version": "1.0", "crossing_class": "road_crossing" }, "geometry": { "type": "Point", "coordinates": [ -73.0570368, 42.9638301 ] } },
{ "type": "Feature", "properties": { "crossing_id": "crossing_0098", "name": "Appalachian Trail", "road_type": "footway", "trail_mile": 0.0, "vehicle_access": true, "trailhead": true, "schema_version": "1.0", "crossing_class": "road_crossing" }, "geometry": { "type": "Point", "coordinates": [ -73.155534599999982, 42.7438189 ] } },
{ "type": "Feature", "properties": { "crossing_id": "crossing_0099", "name": "Griffith Lake Trail", "road_type": "path", "trail_mile": 65.6, "vehicle_access": true, "trailhead": true, "schema_version": "1.0", "crossing_class": "road_crossing" }, "geometry": { "type": "Point", "coordinates": [ -72.958315099999979, 43.3067518 ] } },
{ "type": "Feature", "properties": { "crossing_id": "crossing_0100", "name": "nan", "road_type": "motorway", "trail_mile": 187.5, "vehicle_access": true, "trailhead": true, "schema_version": "1.0", "crossing_class": "road_crossing" }, "geometry": { "type": "Point", "coordinates": [ -72.916672559889562, 44.380936526424669 ] } },
{ "type": "Feature", "properties": { "crossing_id": "crossing_0101", "name": "Notch Road", "road_type": "residential", "trail_mile": 187.5, "vehicle_access": true, "trailhead": true, "schema_version": "1.0", "crossing_class": "road_crossing" }, "geometry": { "type": "Point", "coordinates": [ -72.91690389999998, 44.3804071 ] } },
{ "type": "Feature", "properties": { "crossing_id": "crossing_0102", "name": "nan", "road_type": "path", "trail_mile": 122.8, "vehicle_access": true, "trailhead": true, "schema_version": "1.0", "crossing_class": "road_crossing" }, "geometry": { "type": "Point", "coordinates": [ -72.942661, 43.802027 ] } },
{ "type": "Feature", "properties": { "crossing_id": "crossing_0103", "name": "Chittenden Brook Trail", "road_type": "path", "trail_mile": 124.9, "vehicle_access": true, "trailhead": true, "schema_version": "1.0", "crossing_class": "road_crossing" }, "geometry": { "type": "Point", "coordinates": [ -72.9446412, 43.8254899 ] } },
{ "type": "Feature", "properties": { "crossing_id": "crossing_0104", "name": "Bucklin Trail", "road_type": "footway", "trail_mile": 99.8, "vehicle_access": true, "trailhead": true, "schema_version": "1.0", "crossing_class": "road_crossing" }, "geometry": { "type": "Point", "coordinates": [ -72.8241256, 43.6069149 ] } },
{ "type": "Feature", "properties": { "crossing_id": "crossing_0105", "name": "U.S. Route 4", "road_type": "trunk", "trail_mile": 106.0, "vehicle_access": true, "trailhead": true, "schema_version": "1.0", "crossing_class": "road_crossing" }, "geometry": { "type": "Point", "coordinates": [ -72.8501179, 43.6668357 ] } },
{ "type": "Feature", "properties": { "crossing_id": "crossing_0106", "name": "nan", "road_type": "service", "trail_mile": 187.2, "vehicle_access": true, "trailhead": true, "schema_version": "1.0", "crossing_class": "road_crossing" }, "geometry": { "type": "Point", "coordinates": [ -72.912277, 44.3794522 ] } },
{ "type": "Feature", "properties": { "crossing_id": "crossing_0107", "name": "Theodore Roosevelt Highway", "road_type": "primary", "trail_mile": 187.2, "vehicle_access": true, "trailhead": true, "schema_version": "1.0", "crossing_class": "road_crossing" }, "geometry": { "type": "Point", "coordinates": [ -72.9119267, 44.3792533 ] } },
{ "type": "Feature", "properties": { "crossing_id": "crossing_0108", "name": "Duxbury Road", "road_type": "tertiary", "trail_mile": 186.5, "vehicle_access": true, "trailhead": true, "schema_version": "1.0", "crossing_class": "road_crossing" }, "geometry": { "type": "Point", "coordinates": [ -72.9121051, 44.3761249 ] } },
{ "type": "Feature", "properties": { "crossing_id": "crossing_0109", "name": "North Ridge", "road_type": "path", "trail_mile": 194.7, "vehicle_access": true, "trailhead": true, "schema_version": "1.0", "crossing_class": "road_crossing" }, "geometry": { "type": "Point", "coordinates": [ -72.860207399999979, 44.4360384 ] } },
{ "type": "Feature", "properties": { "crossing_id": "crossing_0110", "name": "Appalachian Trail", "road_type": "footway", "trail_mile": 107.1, "vehicle_access": true, "trailhead": true, "schema_version": "1.0", "crossing_class": "road_crossing" }, "geometry": { "type": "Point", "coordinates": [ -72.8392734, 43.6747659 ] } },
{ "type": "Feature", "properties": { "crossing_id": "crossing_0111", "name": "Codding Hollow Road", "road_type": "track", "trail_mile": 230.6, "vehicle_access": true, "trailhead": true, "schema_version": "1.0", "crossing_class": "road_crossing" }, "geometry": { "type": "Point", "coordinates": [ -72.710730499999983, 44.707602799999989 ] } },
{ "type": "Feature", "properties": { "crossing_id": "crossing_0112", "name": "Sucker Brook Trail", "road_type": "cycleway", "trail_mile": 133.0, "vehicle_access": true, "trailhead": true, "schema_version": "1.0", "crossing_class": "road_crossing" }, "geometry": { "type": "Point", "coordinates": [ -72.971128, 43.892924 ] } },
{ "type": "Feature", "properties": { "crossing_id": "crossing_0113", "name": "Lamoille Valley Rail Trail", "road_type": "cycleway", "trail_mile": 223.7, "vehicle_access": true, "trailhead": true, "schema_version": "1.0", "crossing_class": "road_crossing" }, "geometry": { "type": "Point", "coordinates": [ -72.7291647, 44.6428143 ] } },
{ "type": "Feature", "properties": { "crossing_id": "crossing_0114", "name": "nan", "road_type": "service", "trail_mile": 223.9, "vehicle_access": true, "trailhead": true, "schema_version": "1.0", "crossing_class": "road_crossing" }, "geometry": { "type": "Point", "coordinates": [ -72.7281713, 44.6451067 ] } },
{ "type": "Feature", "properties": { "crossing_id": "crossing_0115", "name": "Raven's Wind", "road_type": "path", "trail_mile": 196.3, "vehicle_access": true, "trailhead": true, "schema_version": "1.0", "crossing_class": "road_crossing" }, "geometry": { "type": "Point", "coordinates": [ -72.843275, 44.442909 ] } },
{ "type": "Feature", "properties": { "crossing_id": "crossing_0116", "name": "Shrewsbury Peak Trail", "road_type": "footway", "trail_mile": 98.0, "vehicle_access": true, "trailhead": true, "schema_version": "1.0", "crossing_class": "road_crossing" }, "geometry": { "type": "Point", "coordinates": [ -72.8172358, 43.589479 ] } },
{ "type": "Feature", "properties": { "crossing_id": "crossing_0117", "name": "Catamount Trail", "road_type": "track", "trail_mile": 95.2, "vehicle_access": true, "trailhead": true, "schema_version": "1.0", "crossing_class": "road_crossing" }, "geometry": { "type": "Point", "coordinates": [ -72.8494425, 43.5647498 ] } },
{ "type": "Feature", "properties": { "crossing_id": "crossing_0118", "name": "Theodore Roosevelt Highway", "road_type": "primary", "trail_mile": 187.2, "vehicle_access": true, "trailhead": true, "schema_version": "1.0", "crossing_class": "road_crossing" }, "geometry": { "type": "Point", "coordinates": [ -72.9119267, 44.3792533 ] } },
{ "type": "Feature", "properties": { "crossing_id": "crossing_0119", "name": "Duxbury Road", "road_type": "tertiary", "trail_mile": 185.2, "vehicle_access": true, "trailhead": true, "schema_version": "1.0", "crossing_class": "road_crossing" }, "geometry": { "type": "Point", "coordinates": [ -72.895844199999985, 44.3716539 ] } },
{ "type": "Feature", "properties": { "crossing_id": "crossing_0120", "name": "Duxbury Road", "road_type": "tertiary", "trail_mile": 186.8, "vehicle_access": true, "trailhead": true, "schema_version": "1.0", "crossing_class": "road_crossing" }, "geometry": { "type": "Point", "coordinates": [ -72.917281, 44.37832 ] } },
{ "type": "Feature", "properties": { "crossing_id": "crossing_0121", "name": "Amherst Trail", "road_type": "path", "trail_mile": 205.8, "vehicle_access": true, "trailhead": true, "schema_version": "1.0", "crossing_class": "road_crossing" }, "geometry": { "type": "Point", "coordinates": [ -72.817133, 44.533575 ] } },
{ "type": "Feature", "properties": { "crossing_id": "crossing_0122", "name": "Keewaydin Trail", "road_type": "path", "trail_mile": 80.6, "vehicle_access": true, "trailhead": true, "schema_version": "1.0", "crossing_class": "road_crossing" }, "geometry": { "type": "Point", "coordinates": [ -72.9375312, 43.4483517 ] } },
{ "type": "Feature", "properties": { "crossing_id": "crossing_0123", "name": "Overlook spur", "road_type": "path", "trail_mile": 79.4, "vehicle_access": true, "trailhead": true, "schema_version": "1.0", "crossing_class": "road_crossing" }, "geometry": { "type": "Point", "coordinates": [ -72.942533700000013, 43.4429858 ] } },
{ "type": "Feature", "properties": { "crossing_id": "crossing_0124", "name": "West Ridge Trail", "road_type": "path", "trail_mile": 24.3, "vehicle_access": true, "trailhead": true, "schema_version": "1.0", "crossing_class": "road_crossing" }, "geometry": { "type": "Point", "coordinates": [ -73.0722266, 42.9742472 ] } },
{ "type": "Feature", "properties": { "crossing_id": "crossing_0125", "name": "Link to Little Pond", "road_type": "track", "trail_mile": 18.8, "vehicle_access": true, "trailhead": true, "schema_version": "1.0", "crossing_class": "road_crossing" }, "geometry": { "type": "Point", "coordinates": [ -73.076337, 42.9207773 ] } },
{ "type": "Feature", "properties": { "crossing_id": "crossing_0126", "name": "nan", "road_type": "path", "trail_mile": 33.4, "vehicle_access": true, "trailhead": true, "schema_version": "1.0", "crossing_class": "road_crossing" }, "geometry": { "type": "Point", "coordinates": [ -73.0114299, 43.0514306 ] } },
{ "type": "Feature", "properties": { "crossing_id": "crossing_0127", "name": "TH-Basin Road", "road_type": "track_grade4", "trail_mile": 239.0, "vehicle_access": true, "trailhead": true, "schema_version": "1.0", "crossing_class": "road_crossing" }, "geometry": { "type": "Point", "coordinates": [ -72.6490035, 44.7236781 ] } },
{ "type": "Feature", "properties": { "crossing_id": "crossing_0128", "name": "Big Jay herd path", "road_type": "footway", "trail_mile": 263.5, "vehicle_access": true, "trailhead": true, "schema_version": "1.0", "crossing_class": "road_crossing" }, "geometry": { "type": "Point", "coordinates": [ -72.5300091, 44.9241713 ] } },
{ "type": "Feature", "properties": { "crossing_id": "crossing_0129", "name": "Jay Loop", "road_type": "path", "trail_mile": 261.6, "vehicle_access": true, "trailhead": true, "schema_version": "1.0", "crossing_class": "road_crossing" }, "geometry": { "type": "Point", "coordinates": [ -72.5055473, 44.9129586 ] } },
{ "type": "Feature", "properties": { "crossing_id": "crossing_0130", "name": "Jay Loop", "road_type": "path", "trail_mile": 261.9, "vehicle_access": true, "trailhead": true, "schema_version": "1.0", "crossing_class": "road_crossing" }, "geometry": { "type": "Point", "coordinates": [ -72.5087968, 44.915501399999989 ] } },
{ "type": "Feature", "properties": { "crossing_id": "crossing_0131", "name": "nan", "road_type": "path", "trail_mile": 252.7, "vehicle_access": true, "trailhead": true, "schema_version": "1.0", "crossing_class": "road_crossing" }, "geometry": { "type": "Point", "coordinates": [ -72.538837300000012, 44.8239389 ] } },
{ "type": "Feature", "properties": { "crossing_id": "crossing_0132", "name": "nan", "road_type": "footway", "trail_mile": 242.4, "vehicle_access": true, "trailhead": true, "schema_version": "1.0", "crossing_class": "road_crossing" }, "geometry": { "type": "Point", "coordinates": [ -72.6113622, 44.7455022 ] } },
{ "type": "Feature", "properties": { "crossing_id": "crossing_0133", "name": "West Settlement Road", "road_type": "residential", "trail_mile": 223.2, "vehicle_access": true, "trailhead": true, "schema_version": "1.0", "crossing_class": "road_crossing" }, "geometry": { "type": "Point", "coordinates": [ -72.7216143, 44.6417247 ] } },
{ "type": "Feature", "properties": { "crossing_id": "crossing_0134", "name": "nan", "road_type": "service", "trail_mile": 222.9, "vehicle_access": true, "trailhead": true, "schema_version": "1.0", "crossing_class": "road_crossing" }, "geometry": { "type": "Point", "coordinates": [ -72.725242, 44.637991 ] } },
{ "type": "Feature", "properties": { "crossing_id": "crossing_0135", "name": "nan", "road_type": "track", "trail_mile": 109.7, "vehicle_access": true, "trailhead": true, "schema_version": "1.0", "crossing_class": "road_crossing" }, "geometry": { "type": "Point", "coordinates": [ -72.85882, 43.696909 ] } },
{ "type": "Feature", "properties": { "crossing_id": "crossing_0136", "name": "Skylight Pond Trail West", "road_type": "path", "trail_mile": 142.7, "vehicle_access": true, "trailhead": true, "schema_version": "1.0", "crossing_class": "road_crossing" }, "geometry": { "type": "Point", "coordinates": [ -72.93738, 43.988689 ] } },
{ "type": "Feature", "properties": { "crossing_id": "crossing_0137", "name": "Hill Trail", "road_type": "footway", "trail_mile": 140.0, "vehicle_access": true, "trailhead": true, "schema_version": "1.0", "crossing_class": "road_crossing" }, "geometry": { "type": "Point", "coordinates": [ -72.94483, 43.959475 ] } },
{ "type": "Feature", "properties": { "crossing_id": "crossing_0138", "name": "Clark Brook Trail", "road_type": "footway", "trail_mile": 146.1, "vehicle_access": true, "trailhead": true, "schema_version": "1.0", "crossing_class": "road_crossing" }, "geometry": { "type": "Point", "coordinates": [ -72.919372, 44.016116 ] } },
{ "type": "Feature", "properties": { "crossing_id": "crossing_0139", "name": "Emily Proctor Trail", "road_type": "path", "trail_mile": 144.5, "vehicle_access": true, "trailhead": true, "schema_version": "1.0", "crossing_class": "road_crossing" }, "geometry": { "type": "Point", "coordinates": [ -72.932184, 44.001479 ] } },
{ "type": "Feature", "properties": { "crossing_id": "crossing_0140", "name": "Cooley Glen Trail", "road_type": "footway", "trail_mile": 150.2, "vehicle_access": true, "trailhead": true, "schema_version": "1.0", "crossing_class": "road_crossing" }, "geometry": { "type": "Point", "coordinates": [ -72.913996, 44.049501 ] } },
{ "type": "Feature", "properties": { "crossing_id": "crossing_0141", "name": "Cooley Glen Trail", "road_type": "footway", "trail_mile": 150.2, "vehicle_access": true, "trailhead": true, "schema_version": "1.0", "crossing_class": "road_crossing" }, "geometry": { "type": "Point", "coordinates": [ -72.914017146582708, 44.049484114638453 ] } },
{ "type": "Feature", "properties": { "crossing_id": "crossing_0142", "name": "nan", "road_type": "path", "trail_mile": 187.2, "vehicle_access": true, "trailhead": true, "schema_version": "1.0", "crossing_class": "road_crossing" }, "geometry": { "type": "Point", "coordinates": [ -72.9119516, 44.379383 ] } },
{ "type": "Feature", "properties": { "crossing_id": "crossing_0143", "name": "nan", "road_type": "path", "trail_mile": 12.6, "vehicle_access": true, "trailhead": true, "schema_version": "1.0", "crossing_class": "road_crossing" }, "geometry": { "type": "Point", "coordinates": [ -73.132463299999984, 42.8711199 ] } },
{ "type": "Feature", "properties": { "crossing_id": "crossing_0144", "name": "nan", "road_type": "path", "trail_mile": 12.6, "vehicle_access": true, "trailhead": true, "schema_version": "1.0", "crossing_class": "road_crossing" }, "geometry": { "type": "Point", "coordinates": [ -73.1321267, 42.8716728 ] } },
{ "type": "Feature", "properties": { "crossing_id": "crossing_0145", "name": "nan", "road_type": "path", "trail_mile": 115.7, "vehicle_access": true, "trailhead": true, "schema_version": "1.0", "crossing_class": "road_crossing" }, "geometry": { "type": "Point", "coordinates": [ -72.886619600000017, 43.7448209 ] } },
{ "type": "Feature", "properties": { "crossing_id": "crossing_0146", "name": "Babcock Trail Extension", "road_type": "footway", "trail_mile": 245.0, "vehicle_access": true, "trailhead": true, "schema_version": "1.0", "crossing_class": "road_crossing" }, "geometry": { "type": "Point", "coordinates": [ -72.5876094, 44.7640051 ] } },
{ "type": "Feature", "properties": { "crossing_id": "crossing_0147", "name": "Babcock Trail", "road_type": "footway", "trail_mile": 243.1, "vehicle_access": true, "trailhead": true, "schema_version": "1.0", "crossing_class": "road_crossing" }, "geometry": { "type": "Point", "coordinates": [ -72.6028, 44.7488282 ] } },
{ "type": "Feature", "properties": { "crossing_id": "crossing_0148", "name": "nan", "road_type": "path", "trail_mile": 127.4, "vehicle_access": true, "trailhead": true, "schema_version": "1.0", "crossing_class": "road_crossing" }, "geometry": { "type": "Point", "coordinates": [ -72.9674983, 43.8401278 ] } },
{ "type": "Feature", "properties": { "crossing_id": "crossing_0149", "name": "Great Cliff spur", "road_type": "path", "trail_mile": 128.1, "vehicle_access": true, "trailhead": true, "schema_version": "1.0", "crossing_class": "road_crossing" }, "geometry": { "type": "Point", "coordinates": [ -72.965086899999989, 43.8453091 ] } },
{ "type": "Feature", "properties": { "crossing_id": "crossing_0150", "name": "Vermont Route 11 30", "road_type": "primary", "trail_mile": 54.8, "vehicle_access": true, "trailhead": true, "schema_version": "1.0", "crossing_class": "road_crossing" }, "geometry": { "type": "Point", "coordinates": [ -72.9707674, 43.2068155 ] } },
{ "type": "Feature", "properties": { "crossing_id": "crossing_0151", "name": "Goat Path", "road_type": "path", "trail_mile": 194.1, "vehicle_access": true, "trailhead": true, "schema_version": "1.0", "crossing_class": "road_crossing" }, "geometry": { "type": "Point", "coordinates": [ -72.8700091, 44.4338282 ] } },
{ "type": "Feature", "properties": { "crossing_id": "crossing_0152", "name": "nan", "road_type": "track_grade5", "trail_mile": 52.8, "vehicle_access": true, "trailhead": true, "schema_version": "1.0", "crossing_class": "road_crossing" }, "geometry": { "type": "Point", "coordinates": [ -72.9891947, 43.1896512 ] } },
{ "type": "Feature", "properties": { "crossing_id": "crossing_0153", "name": "Spruce Peak Shelter Spur", "road_type": "path", "trail_mile": 51.9, "vehicle_access": true, "trailhead": true, "schema_version": "1.0", "crossing_class": "road_crossing" }, "geometry": { "type": "Point", "coordinates": [ -72.994175899999988, 43.1795243 ] } },
{ "type": "Feature", "properties": { "crossing_id": "crossing_0154", "name": "nan", "road_type": "path", "trail_mile": 52.4, "vehicle_access": true, "trailhead": true, "schema_version": "1.0", "crossing_class": "road_crossing" }, "geometry": { "type": "Point", "coordinates": [ -72.99314339999998, 43.1854478 ] } },
{ "type": "Feature", "properties": { "crossing_id": "crossing_0155", "name": "nan", "road_type": "footway", "trail_mile": 243.1, "vehicle_access": true, "trailhead": true, "schema_version": "1.0", "crossing_class": "road_crossing" }, "geometry": { "type": "Point", "coordinates": [ -72.6028, 44.7488282 ] } },
{ "type": "Feature", "properties": { "crossing_id": "crossing_0156", "name": "nan", "road_type": "path", "trail_mile": 170.8, "vehicle_access": true, "trailhead": true, "schema_version": "1.0", "crossing_class": "road_crossing" }, "geometry": { "type": "Point", "coordinates": [ -72.9086962, 44.2413397 ] } },
{ "type": "Feature", "properties": { "crossing_id": "crossing_0157", "name": "nan", "road_type": "path", "trail_mile": 271.5, "vehicle_access": true, "trailhead": true, "schema_version": "1.0", "crossing_class": "road_crossing" }, "geometry": { "type": "Point", "coordinates": [ -72.4921247, 44.9920767 ] } },
{ "type": "Feature", "properties": { "crossing_id": "crossing_0158", "name": "Frank Post Trail", "road_type": "path", "trail_mile": 250.2, "vehicle_access": true, "trailhead": true, "schema_version": "1.0", "crossing_class": "road_crossing" }, "geometry": { "type": "Point", "coordinates": [ -72.5510392, 44.7992945 ] } },
{ "type": "Feature", "properties": { "crossing_id": "crossing_0159", "name": "Elephant’s Head Spur", "road_type": "path", "trail_mile": 211.9, "vehicle_access": true, "trailhead": true, "schema_version": "1.0", "crossing_class": "road_crossing" }, "geometry": { "type": "Point", "coordinates": [ -72.7925902, 44.5532466 ] } },
{ "type": "Feature", "properties": { "crossing_id": "crossing_0160", "name": "Barnes Camp Loop", "road_type": "path", "trail_mile": 209.2, "vehicle_access": true, "trailhead": true, "schema_version": "1.0", "crossing_class": "road_crossing" }, "geometry": { "type": "Point", "coordinates": [ -72.7894449, 44.536185 ] } },
{ "type": "Feature", "properties": { "crossing_id": "crossing_0161", "name": "nan", "road_type": "footway", "trail_mile": 99.6, "vehicle_access": true, "trailhead": true, "schema_version": "1.0", "crossing_class": "road_crossing" }, "geometry": { "type": "Point", "coordinates": [ -72.822315399999979, 43.6058448 ] } },
{ "type": "Feature", "properties": { "crossing_id": "crossing_0162", "name": "nan", "road_type": "footway", "trail_mile": 88.9, "vehicle_access": true, "trailhead": true, "schema_version": "1.0", "crossing_class": "road_crossing" }, "geometry": { "type": "Point", "coordinates": [ -72.91301, 43.5242756 ] } },
{ "type": "Feature", "properties": { "crossing_id": "crossing_0163", "name": "nan", "road_type": "path", "trail_mile": 82.4, "vehicle_access": true, "trailhead": true, "schema_version": "1.0", "crossing_class": "road_crossing" }, "geometry": { "type": "Point", "coordinates": [ -72.9355824, 43.464406 ] } },
{ "type": "Feature", "properties": { "crossing_id": "crossing_0164", "name": "Old Job Trail", "road_type": "path", "trail_mile": 71.2, "vehicle_access": true, "trailhead": true, "schema_version": "1.0", "crossing_class": "road_crossing" }, "geometry": { "type": "Point", "coordinates": [ -72.942994699999986, 43.3632523 ] } },
{ "type": "Feature", "properties": { "crossing_id": "crossing_0165", "name": "nan", "road_type": "path", "trail_mile": 2.8, "vehicle_access": true, "trailhead": true, "schema_version": "1.0", "crossing_class": "road_crossing" }, "geometry": { "type": "Point", "coordinates": [ -73.1347686, 42.770837 ] } },
{ "type": "Feature", "properties": { "crossing_id": "crossing_0166", "name": "Davis Neighborhood Trail", "road_type": "path", "trail_mile": 235.6, "vehicle_access": true, "trailhead": true, "schema_version": "1.0", "crossing_class": "road_crossing" }, "geometry": { "type": "Point", "coordinates": [ -72.6844726, 44.7063292 ] } },
{ "type": "Feature", "properties": { "crossing_id": "crossing_0167", "name": "nan", "road_type": "path", "trail_mile": 28.4, "vehicle_access": true, "trailhead": true, "schema_version": "1.0", "crossing_class": "road_crossing" }, "geometry": { "type": "Point", "coordinates": [ -73.043402799999981, 43.0144014 ] } },
{ "type": "Feature", "properties": { "crossing_id": "crossing_0168", "name": "Seasonal Forestry Road", "road_type": "residential", "trail_mile": 72.7, "vehicle_access": true, "trailhead": true, "schema_version": "1.0", "crossing_class": "road_crossing" }, "geometry": { "type": "Point", "coordinates": [ -72.962529, 43.3728011 ] } },
{ "type": "Feature", "properties": { "crossing_id": "crossing_0169", "name": "nan", "road_type": "path", "trail_mile": 74.8, "vehicle_access": true, "trailhead": true, "schema_version": "1.0", "crossing_class": "road_crossing" }, "geometry": { "type": "Point", "coordinates": [ -72.955200199999979, 43.3987918 ] } },
{ "type": "Feature", "properties": { "crossing_id": "crossing_0170", "name": "nan", "road_type": "path", "trail_mile": 75.3, "vehicle_access": true, "trailhead": true, "schema_version": "1.0", "crossing_class": "road_crossing" }, "geometry": { "type": "Point", "coordinates": [ -72.9535075, 43.4040128 ] } },
{ "type": "Feature", "properties": { "crossing_id": "crossing_0171", "name": "nan", "road_type": "path", "trail_mile": 79.9, "vehicle_access": true, "trailhead": true, "schema_version": "1.0", "crossing_class": "road_crossing" }, "geometry": { "type": "Point", "coordinates": [ -72.9335263, 43.4422273 ] } },
{ "type": "Feature", "properties": { "crossing_id": "crossing_0172", "name": "Churchill Scott Shelter Trail", "road_type": "path", "trail_mile": 104.1, "vehicle_access": true, "trailhead": true, "schema_version": "1.0", "crossing_class": "road_crossing" }, "geometry": { "type": "Point", "coordinates": [ -72.8528046, 43.6462073 ] } },
{ "type": "Feature", "properties": { "crossing_id": "crossing_0173", "name": "nan", "road_type": "path", "trail_mile": 107.1, "vehicle_access": true, "trailhead": true, "schema_version": "1.0", "crossing_class": "road_crossing" }, "geometry": { "type": "Point", "coordinates": [ -72.8392734, 43.6747659 ] } },
{ "type": "Feature", "properties": { "crossing_id": "crossing_0174", "name": "New Boston Trail", "road_type": "path", "trail_mile": 119.4, "vehicle_access": true, "trailhead": true, "schema_version": "1.0", "crossing_class": "road_crossing" }, "geometry": { "type": "Point", "coordinates": [ -72.921108, 43.7691005 ] } },
{ "type": "Feature", "properties": { "crossing_id": "crossing_0175", "name": "nan", "road_type": "path", "trail_mile": 118.8, "vehicle_access": true, "trailhead": true, "schema_version": "1.0", "crossing_class": "road_crossing" }, "geometry": { "type": "Point", "coordinates": [ -72.912439, 43.768732 ] } },
{ "type": "Feature", "properties": { "crossing_id": "crossing_0176", "name": "nan", "road_type": "path", "trail_mile": 118.9, "vehicle_access": true, "trailhead": true, "schema_version": "1.0", "crossing_class": "road_crossing" }, "geometry": { "type": "Point", "coordinates": [ -72.9131293, 43.7689597 ] } },
{ "type": "Feature", "properties": { "crossing_id": "crossing_0177", "name": "nan", "road_type": "path", "trail_mile": 122.8, "vehicle_access": true, "trailhead": true, "schema_version": "1.0", "crossing_class": "road_crossing" }, "geometry": { "type": "Point", "coordinates": [ -72.942661, 43.802027 ] } },
{ "type": "Feature", "properties": { "crossing_id": "crossing_0178", "name": "Corridor 7", "road_type": "track_grade4", "trail_mile": 55.8, "vehicle_access": true, "trailhead": true, "schema_version": "1.0", "crossing_class": "road_crossing" }, "geometry": { "type": "Point", "coordinates": [ -72.9631395, 43.2170014 ] } },
{ "type": "Feature", "properties": { "crossing_id": "crossing_0179", "name": "nan", "road_type": "service", "trail_mile": 245.0, "vehicle_access": true, "trailhead": true, "schema_version": "1.0", "crossing_class": "road_crossing" }, "geometry": { "type": "Point", "coordinates": [ -72.5875633, 44.7639953 ] } },
{ "type": "Feature", "properties": { "crossing_id": "crossing_0180", "name": "nan", "road_type": "path", "trail_mile": 209.5, "vehicle_access": true, "trailhead": true, "schema_version": "1.0", "crossing_class": "road_crossing" }, "geometry": { "type": "Point", "coordinates": [ -72.786368400000015, 44.5332655 ] } },
{ "type": "Feature", "properties": { "crossing_id": "crossing_0181", "name": "nan", "road_type": "path", "trail_mile": 137.0, "vehicle_access": true, "trailhead": true, "schema_version": "1.0", "crossing_class": "road_crossing" }, "geometry": { "type": "Point", "coordinates": [ -72.955633899999981, 43.93335 ] } },
{ "type": "Feature", "properties": { "crossing_id": "crossing_0182", "name": "nan", "road_type": "path", "trail_mile": 115.7, "vehicle_access": true, "trailhead": true, "schema_version": "1.0", "crossing_class": "road_crossing" }, "geometry": { "type": "Point", "coordinates": [ -72.885934, 43.745269 ] } },
{ "type": "Feature", "properties": { "crossing_id": "crossing_0183", "name": "nan", "road_type": "path", "trail_mile": 115.8, "vehicle_access": true, "trailhead": true, "schema_version": "1.0", "crossing_class": "road_crossing" }, "geometry": { "type": "Point", "coordinates": [ -72.8855834, 43.7456153 ] } },
{ "type": "Feature", "properties": { "crossing_id": "crossing_0184", "name": "nan", "road_type": "path", "trail_mile": 264.6, "vehicle_access": true, "trailhead": true, "schema_version": "1.0", "crossing_class": "road_crossing" }, "geometry": { "type": "Point", "coordinates": [ -72.5348505, 44.9373366 ] } },
{ "type": "Feature", "properties": { "crossing_id": "crossing_0185", "name": "nan", "road_type": "path", "trail_mile": 268.5, "vehicle_access": true, "trailhead": true, "schema_version": "1.0", "crossing_class": "road_crossing" }, "geometry": { "type": "Point", "coordinates": [ -72.5120716, 44.9692745 ] } },
{ "type": "Feature", "properties": { "crossing_id": "crossing_0186", "name": "nan", "road_type": "path", "trail_mile": 157.4, "vehicle_access": true, "trailhead": true, "schema_version": "1.0", "crossing_class": "road_crossing" }, "geometry": { "type": "Point", "coordinates": [ -72.9364918, 44.112183 ] } },
{ "type": "Feature", "properties": { "crossing_id": "crossing_0187", "name": "Vermont Route 15 West", "road_type": "primary", "trail_mile": 223.9, "vehicle_access": true, "trailhead": true, "schema_version": "1.0", "crossing_class": "road_crossing" }, "geometry": { "type": "Point", "coordinates": [ -72.7283826, 44.6449374 ] } },
{ "type": "Feature", "properties": { "crossing_id": "crossing_0188", "name": "Vermont Route 15 West", "road_type": "primary", "trail_mile": 223.8, "vehicle_access": true, "trailhead": true, "schema_version": "1.0", "crossing_class": "road_crossing" }, "geometry": { "type": "Point", "coordinates": [ -72.727526, 44.644508 ] } },
{ "type": "Feature", "properties": { "crossing_id": "crossing_0189", "name": "Snuffy's", "road_type": "path", "trail_mile": 212.6, "vehicle_access": true, "trailhead": true, "schema_version": "1.0", "crossing_class": "road_crossing" }, "geometry": { "type": "Point", "coordinates": [ -72.781162499999979, 44.5522939 ] } },
{ "type": "Feature", "properties": { "crossing_id": "crossing_0190", "name": "nan", "road_type": "footway", "trail_mile": 209.6, "vehicle_access": true, "trailhead": true, "schema_version": "1.0", "crossing_class": "road_crossing" }, "geometry": { "type": "Point", "coordinates": [ -72.7854761, 44.5335371 ] } },
{ "type": "Feature", "properties": { "crossing_id": "crossing_0191", "name": "Stratton Arlington Road", "road_type": "unclassified", "trail_mile": 37.1, "vehicle_access": true, "trailhead": true, "schema_version": "1.0", "crossing_class": "road_crossing" }, "geometry": { "type": "Point", "coordinates": [ -72.96765689999998, 43.0610367 ] } },
{ "type": "Feature", "properties": { "crossing_id": "crossing_0192", "name": "nan", "road_type": "service", "trail_mile": 48.9, "vehicle_access": true, "trailhead": true, "schema_version": "1.0", "crossing_class": "road_crossing" }, "geometry": { "type": "Point", "coordinates": [ -72.9939197, 43.1500473 ] } },
{ "type": "Feature", "properties": { "crossing_id": "crossing_0193", "name": "nan", "road_type": "footway", "trail_mile": 87.8, "vehicle_access": true, "trailhead": true, "schema_version": "1.0", "crossing_class": "road_crossing" }, "geometry": { "type": "Point", "coordinates": [ -72.925196899999989, 43.5212748 ] } },
{ "type": "Feature", "properties": { "crossing_id": "crossing_0194", "name": "Cold River Road", "road_type": "tertiary", "trail_mile": 92.0, "vehicle_access": true, "trailhead": true, "schema_version": "1.0", "crossing_class": "road_crossing" }, "geometry": { "type": "Point", "coordinates": [ -72.8714079, 43.53705 ] } },
{ "type": "Feature", "properties": { "crossing_id": "crossing_0195", "name": "Kieffer Road", "road_type": "unclassified", "trail_mile": 91.7, "vehicle_access": true, "trailhead": true, "schema_version": "1.0", "crossing_class": "road_crossing" }, "geometry": { "type": "Point", "coordinates": [ -72.874001099999987, 43.5347266 ] } },
{ "type": "Feature", "properties": { "crossing_id": "crossing_0196", "name": "nan", "road_type": "service", "trail_mile": 166.8, "vehicle_access": true, "trailhead": true, "schema_version": "1.0", "crossing_class": "road_crossing" }, "geometry": { "type": "Point", "coordinates": [ -72.9313268, 44.21107 ] } },
{ "type": "Feature", "properties": { "crossing_id": "crossing_0197", "name": "nan", "road_type": "path", "trail_mile": 165.1, "vehicle_access": true, "trailhead": true, "schema_version": "1.0", "crossing_class": "road_crossing" }, "geometry": { "type": "Point", "coordinates": [ -72.9353538, 44.1983395 ] } },
{ "type": "Feature", "properties": { "crossing_id": "crossing_0198", "name": "nan", "road_type": "path", "trail_mile": 165.4, "vehicle_access": true, "trailhead": true, "schema_version": "1.0", "crossing_class": "road_crossing" }, "geometry": { "type": "Point", "coordinates": [ -72.9352087, 44.201582 ] } },
{ "type": "Feature", "properties": { "crossing_id": "crossing_0199", "name": "Vermont Route 17", "road_type": "secondary", "trail_mile": 166.8, "vehicle_access": true, "trailhead": true, "schema_version": "1.0", "crossing_class": "road_crossing" }, "geometry": { "type": "Point", "coordinates": [ -72.930621, 44.210804 ] } },
{ "type": "Feature", "properties": { "crossing_id": "crossing_0200", "name": "Clara Bow Trail", "road_type": "path", "trail_mile": 201.0, "vehicle_access": true, "trailhead": true, "schema_version": "1.0", "crossing_class": "road_crossing" }, "geometry": { "type": "Point", "coordinates": [ -72.833207099999981, 44.4866329 ] } },
{ "type": "Feature", "properties": { "crossing_id": "crossing_0201", "name": "Vermont Route 103", "road_type": "trunk", "trail_mile": 87.8, "vehicle_access": true, "trailhead": true, "schema_version": "1.0", "crossing_class": "road_crossing" }, "geometry": { "type": "Point", "coordinates": [ -72.92501, 43.5214414 ] } },
{ "type": "Feature", "properties": { "crossing_id": "crossing_0202", "name": "Vermont Route 125", "road_type": "secondary", "trail_mile": 137.4, "vehicle_access": true, "trailhead": true, "schema_version": "1.0", "crossing_class": "road_crossing" }, "geometry": { "type": "Point", "coordinates": [ -72.9500135, 43.9370099 ] } },
{ "type": "Feature", "properties": { "crossing_id": "crossing_0203", "name": "Stratton Pond Trail", "road_type": "path", "trail_mile": 43.8, "vehicle_access": true, "trailhead": true, "schema_version": "1.0", "crossing_class": "road_crossing" }, "geometry": { "type": "Point", "coordinates": [ -72.962396399999989, 43.1021677 ] } },
{ "type": "Feature", "properties": { "crossing_id": "crossing_0204", "name": "Sherburne Pass Trail", "road_type": "path", "trail_mile": 102.2, "vehicle_access": true, "trailhead": true, "schema_version": "1.0", "crossing_class": "road_crossing" }, "geometry": { "type": "Point", "coordinates": [ -72.8299956, 43.6335757 ] } },
{ "type": "Feature", "properties": { "crossing_id": "crossing_0205", "name": "nan", "road_type": "track", "trail_mile": 239.3, "vehicle_access": true, "trailhead": true, "schema_version": "1.0", "crossing_class": "road_crossing" }, "geometry": { "type": "Point", "coordinates": [ -72.644835, 44.7262113 ] } },
{ "type": "Feature", "properties": { "crossing_id": "crossing_0206", "name": "nan", "road_type": "track", "trail_mile": 239.1, "vehicle_access": true, "trailhead": true, "schema_version": "1.0", "crossing_class": "road_crossing" }, "geometry": { "type": "Point", "coordinates": [ -72.6471128, 44.7252353 ] } },
{ "type": "Feature", "properties": { "crossing_id": "crossing_0207", "name": "nan", "road_type": "service", "trail_mile": 245.0, "vehicle_access": true, "trailhead": true, "schema_version": "1.0", "crossing_class": "road_crossing" }, "geometry": { "type": "Point", "coordinates": [ -72.5875633, 44.7639953 ] } },
{ "type": "Feature", "properties": { "crossing_id": "crossing_0208", "name": "nan", "road_type": "path", "trail_mile": 57.2, "vehicle_access": true, "trailhead": true, "schema_version": "1.0", "crossing_class": "road_crossing" }, "geometry": { "type": "Point", "coordinates": [ -72.9486638, 43.2253444 ] } },
{ "type": "Feature", "properties": { "crossing_id": "crossing_0209", "name": "nan", "road_type": "path", "trail_mile": 188.0, "vehicle_access": true, "trailhead": true, "schema_version": "1.0", "crossing_class": "road_crossing" }, "geometry": { "type": "Point", "coordinates": [ -72.9117483, 44.3838273 ] } },
{ "type": "Feature", "properties": { "crossing_id": "crossing_0210", "name": "nan", "road_type": "path", "trail_mile": 6.3, "vehicle_access": true, "trailhead": true, "schema_version": "1.0", "crossing_class": "road_crossing" }, "geometry": { "type": "Point", "coordinates": [ -73.117320899999982, 42.8085325 ] } },
{ "type": "Feature", "properties": { "crossing_id": "crossing_0211", "name": "nan", "road_type": "track", "trail_mile": 9.3, "vehicle_access": true, "trailhead": true, "schema_version": "1.0", "crossing_class": "road_crossing" }, "geometry": { "type": "Point", "coordinates": [ -73.1126778, 42.8407523 ] } },
{ "type": "Feature", "properties": { "crossing_id": "crossing_0212", "name": "North Brookwood Trail", "road_type": "path", "trail_mile": 44.1, "vehicle_access": true, "trailhead": true, "schema_version": "1.0", "crossing_class": "road_crossing" }, "geometry": { "type": "Point", "coordinates": [ -72.963673199999988, 43.1052609 ] } },
{ "type": "Feature", "properties": { "crossing_id": "crossing_0213", "name": "nan", "road_type": "path", "trail_mile": 42.6, "vehicle_access": true, "trailhead": true, "schema_version": "1.0", "crossing_class": "road_crossing" }, "geometry": { "type": "Point", "coordinates": [ -72.9436747, 43.0985909 ] } },
{ "type": "Feature", "properties": { "crossing_id": "crossing_0214", "name": "nan", "road_type": "path", "trail_mile": 48.6, "vehicle_access": true, "trailhead": true, "schema_version": "1.0", "crossing_class": "road_crossing" }, "geometry": { "type": "Point", "coordinates": [ -72.9897607, 43.1483241 ] } },
{ "type": "Feature", "properties": { "crossing_id": "crossing_0215", "name": "Battell Trail", "road_type": "footway", "trail_mile": 157.3, "vehicle_access": true, "trailhead": true, "schema_version": "1.0", "crossing_class": "road_crossing" }, "geometry": { "type": "Point", "coordinates": [ -72.9380391, 44.11204 ] } },
{ "type": "Feature", "properties": { "crossing_id": "crossing_0216", "name": "nan", "road_type": "path", "trail_mile": 106.0, "vehicle_access": true, "trailhead": true, "schema_version": "1.0", "crossing_class": "road_crossing" }, "geometry": { "type": "Point", "coordinates": [ -72.8500575, 43.6665731 ] } },
{ "type": "Feature", "properties": { "crossing_id": "crossing_0217", "name": "nan", "road_type": "track", "trail_mile": 95.6, "vehicle_access": true, "trailhead": true, "schema_version": "1.0", "crossing_class": "road_crossing" }, "geometry": { "type": "Point", "coordinates": [ -72.8432642, 43.5667287 ] } },
{ "type": "Feature", "properties": { "crossing_id": "crossing_0218", "name": "Clement Shelter Road", "road_type": "residential", "trail_mile": 94.4, "vehicle_access": true, "trailhead": true, "schema_version": "1.0", "crossing_class": "road_crossing" }, "geometry": { "type": "Point", "coordinates": [ -72.85264, 43.557221 ] } },
{ "type": "Feature", "properties": { "crossing_id": "crossing_0219", "name": "Catamount Trail", "road_type": "track", "trail_mile": 95.3, "vehicle_access": true, "trailhead": true, "schema_version": "1.0", "crossing_class": "road_crossing" }, "geometry": { "type": "Point", "coordinates": [ -72.8478618, 43.564775 ] } },
{ "type": "Feature", "properties": { "crossing_id": "crossing_0220", "name": "Old Turnpike Road", "road_type": "track", "trail_mile": 109.5, "vehicle_access": true, "trailhead": true, "schema_version": "1.0", "crossing_class": "road_crossing" }, "geometry": { "type": "Point", "coordinates": [ -72.8561087, 43.6957877 ] } },
{ "type": "Feature", "properties": { "crossing_id": "crossing_0221", "name": "Little Rock Pond Loop", "road_type": "path", "trail_mile": 74.8, "vehicle_access": true, "trailhead": true, "schema_version": "1.0", "crossing_class": "road_crossing" }, "geometry": { "type": "Point", "coordinates": [ -72.955490399999988, 43.3984425 ] } },
{ "type": "Feature", "properties": { "crossing_id": "crossing_0222", "name": "nan", "road_type": "path", "trail_mile": 99.7, "vehicle_access": true, "trailhead": true, "schema_version": "1.0", "crossing_class": "road_crossing" }, "geometry": { "type": "Point", "coordinates": [ -72.822426099999987, 43.6059571 ] } },
{ "type": "Feature", "properties": { "crossing_id": "crossing_0223", "name": "nan", "road_type": "path", "trail_mile": 25.4, "vehicle_access": true, "trailhead": true, "schema_version": "1.0", "crossing_class": "road_crossing" }, "geometry": { "type": "Point", "coordinates": [ -73.068547699999982, 42.9883117 ] } },
{ "type": "Feature", "properties": { "crossing_id": "crossing_0224", "name": "nan", "road_type": "path", "trail_mile": 76.4, "vehicle_access": true, "trailhead": true, "schema_version": "1.0", "crossing_class": "road_crossing" }, "geometry": { "type": "Point", "coordinates": [ -72.9378911, 43.4116015 ] } },
{ "type": "Feature", "properties": { "crossing_id": "crossing_0225", "name": "nan", "road_type": "path", "trail_mile": 214.4, "vehicle_access": true, "trailhead": true, "schema_version": "1.0", "crossing_class": "road_crossing" }, "geometry": { "type": "Point", "coordinates": [ -72.7585443, 44.5614662 ] } },
{ "type": "Feature", "properties": { "crossing_id": "crossing_0226", "name": "nan", "road_type": "path", "trail_mile": 213.0, "vehicle_access": true, "trailhead": true, "schema_version": "1.0", "crossing_class": "road_crossing" }, "geometry": { "type": "Point", "coordinates": [ -72.7765844, 44.556376899999989 ] } },
{ "type": "Feature", "properties": { "crossing_id": "crossing_0227", "name": "Snuffy's", "road_type": "track", "trail_mile": 213.1, "vehicle_access": true, "trailhead": true, "schema_version": "1.0", "crossing_class": "road_crossing" }, "geometry": { "type": "Point", "coordinates": [ -72.7760667, 44.5570441 ] } },
{ "type": "Feature", "properties": { "crossing_id": "crossing_0228", "name": "nan", "road_type": "track", "trail_mile": 213.2, "vehicle_access": true, "trailhead": true, "schema_version": "1.0", "crossing_class": "road_crossing" }, "geometry": { "type": "Point", "coordinates": [ -72.7749206, 44.5571654 ] } },
{ "type": "Feature", "properties": { "crossing_id": "crossing_0229", "name": "nan", "road_type": "path", "trail_mile": 102.1, "vehicle_access": true, "trailhead": true, "schema_version": "1.0", "crossing_class": "road_crossing" }, "geometry": { "type": "Point", "coordinates": [ -72.829848, 43.6325698 ] } },
{ "type": "Feature", "properties": { "crossing_id": "crossing_0230", "name": "nan", "road_type": "path", "trail_mile": 104.7, "vehicle_access": true, "trailhead": true, "schema_version": "1.0", "crossing_class": "road_crossing" }, "geometry": { "type": "Point", "coordinates": [ -72.8543085, 43.6522454 ] } },
{ "type": "Feature", "properties": { "crossing_id": "crossing_0231", "name": "nan", "road_type": "path", "trail_mile": 99.7, "vehicle_access": true, "trailhead": true, "schema_version": "1.0", "crossing_class": "road_crossing" }, "geometry": { "type": "Point", "coordinates": [ -72.823156499999982, 43.6062171 ] } },
{ "type": "Feature", "properties": { "crossing_id": "crossing_0232", "name": "nan", "road_type": "path", "trail_mile": 105.0, "vehicle_access": true, "trailhead": true, "schema_version": "1.0", "crossing_class": "road_crossing" }, "geometry": { "type": "Point", "coordinates": [ -72.8531637, 43.6547979 ] } },
{ "type": "Feature", "properties": { "crossing_id": "crossing_0233", "name": "nan", "road_type": "path", "trail_mile": 104.2, "vehicle_access": true, "trailhead": true, "schema_version": "1.0", "crossing_class": "road_crossing" }, "geometry": { "type": "Point", "coordinates": [ -72.8529852, 43.6470264 ] } },
{ "type": "Feature", "properties": { "crossing_id": "crossing_0234", "name": "Breadloaf Spur Trail", "road_type": "path", "trail_mile": 143.8, "vehicle_access": true, "trailhead": true, "schema_version": "1.0", "crossing_class": "road_crossing" }, "geometry": { "type": "Point", "coordinates": [ -72.9406241, 44.001679 ] } },
{ "type": "Feature", "properties": { "crossing_id": "crossing_0235", "name": "nan", "road_type": "path", "trail_mile": 145.3, "vehicle_access": true, "trailhead": true, "schema_version": "1.0", "crossing_class": "road_crossing" }, "geometry": { "type": "Point", "coordinates": [ -72.921636, 44.006561 ] } },
{ "type": "Feature", "properties": { "crossing_id": "crossing_0236", "name": "Skylight Pond Trail East", "road_type": "path", "trail_mile": 142.7, "vehicle_access": true, "trailhead": true, "schema_version": "1.0", "crossing_class": "road_crossing" }, "geometry": { "type": "Point", "coordinates": [ -72.93738, 43.988689 ] } },
{ "type": "Feature", "properties": { "crossing_id": "crossing_0237", "name": "nan", "road_type": "path", "trail_mile": 106.1, "vehicle_access": true, "trailhead": true, "schema_version": "1.0", "crossing_class": "road_crossing" }, "geometry": { "type": "Point", "coordinates": [ -72.849826399999984, 43.6674748 ] } },
{ "type": "Feature", "properties": { "crossing_id": "crossing_0238", "name": "Laura Cowles Trail", "road_type": "footway", "trail_mile": 206.4, "vehicle_access": true, "trailhead": true, "schema_version": "1.0", "crossing_class": "road_crossing" }, "geometry": { "type": "Point", "coordinates": [ -72.8156933, 44.5419446 ] } },
{ "type": "Feature", "properties": { "crossing_id": "crossing_0239", "name": "Taft Lodge", "road_type": "path", "trail_mile": 207.1, "vehicle_access": true, "trailhead": true, "schema_version": "1.0", "crossing_class": "road_crossing" }, "geometry": { "type": "Point", "coordinates": [ -72.809436, 44.543022 ] } },
{ "type": "Feature", "properties": { "crossing_id": "crossing_0240", "name": "nan", "road_type": "track", "trail_mile": 69.4, "vehicle_access": true, "trailhead": true, "schema_version": "1.0", "crossing_class": "road_crossing" }, "geometry": { "type": "Point", "coordinates": [ -72.9534646, 43.3448725 ] } },
{ "type": "Feature", "properties": { "crossing_id": "crossing_0241", "name": "Orvis Lookout", "road_type": "path", "trail_mile": 163.5, "vehicle_access": true, "trailhead": true, "schema_version": "1.0", "crossing_class": "road_crossing" }, "geometry": { "type": "Point", "coordinates": [ -72.9299005, 44.1799558 ] } },
{ "type": "Feature", "properties": { "crossing_id": "crossing_0242", "name": "Vermont Route 140 East", "road_type": "secondary", "trail_mile": 81.3, "vehicle_access": true, "trailhead": true, "schema_version": "1.0", "crossing_class": "road_crossing" }, "geometry": { "type": "Point", "coordinates": [ -72.9343032, 43.4556725 ] } },
{ "type": "Feature", "properties": { "crossing_id": "crossing_0243", "name": "Nebraska Notch Trail", "road_type": "path", "trail_mile": 201.3, "vehicle_access": true, "trailhead": true, "schema_version": "1.0", "crossing_class": "road_crossing" }, "geometry": { "type": "Point", "coordinates": [ -72.836710599999989, 44.4886329 ] } },
{ "type": "Feature", "properties": { "crossing_id": "crossing_0244", "name": "nan", "road_type": "track_grade4", "trail_mile": 54.9, "vehicle_access": true, "trailhead": true, "schema_version": "1.0", "crossing_class": "road_crossing" }, "geometry": { "type": "Point", "coordinates": [ -72.9689615, 43.207323 ] } },
{ "type": "Feature", "properties": { "crossing_id": "crossing_0245", "name": "Old VAST Trail", "road_type": "track_grade5", "trail_mile": 190.0, "vehicle_access": true, "trailhead": true, "schema_version": "1.0", "crossing_class": "road_crossing" }, "geometry": { "type": "Point", "coordinates": [ -72.8904968, 44.3958324 ] } },
{ "type": "Feature", "properties": { "crossing_id": "crossing_0246", "name": "Old VAST Trail", "road_type": "track_grade5", "trail_mile": 190.0, "vehicle_access": true, "trailhead": true, "schema_version": "1.0", "crossing_class": "road_crossing" }, "geometry": { "type": "Point", "coordinates": [ -72.8904968, 44.3958324 ] } },
{ "type": "Feature", "properties": { "crossing_id": "crossing_0247", "name": "nan", "road_type": "track", "trail_mile": 36.2, "vehicle_access": true, "trailhead": true, "schema_version": "1.0", "crossing_class": "road_crossing" }, "geometry": { "type": "Point", "coordinates": [ -72.9718967, 43.0533645 ] } },
{ "type": "Feature", "properties": { "crossing_id": "crossing_0248", "name": "nan", "road_type": "track", "trail_mile": 22.7, "vehicle_access": true, "trailhead": true, "schema_version": "1.0", "crossing_class": "road_crossing" }, "geometry": { "type": "Point", "coordinates": [ -73.0582056, 42.9629726 ] } },
{ "type": "Feature", "properties": { "crossing_id": "crossing_0249", "name": "nan", "road_type": "path", "trail_mile": 25.4, "vehicle_access": true, "trailhead": true, "schema_version": "1.0", "crossing_class": "road_crossing" }, "geometry": { "type": "Point", "coordinates": [ -73.068547699999982, 42.9883117 ] } },
{ "type": "Feature", "properties": { "crossing_id": "crossing_0250", "name": "Vermont Route 9", "road_type": "trunk", "trail_mile": 14.3, "vehicle_access": true, "trailhead": true, "schema_version": "1.0", "crossing_class": "road_crossing" }, "geometry": { "type": "Point", "coordinates": [ -73.1158745, 42.8850325 ] } },
{ "type": "Feature", "properties": { "crossing_id": "crossing_0251", "name": "nan", "road_type": "track", "trail_mile": 36.8, "vehicle_access": true, "trailhead": true, "schema_version": "1.0", "crossing_class": "road_crossing" }, "geometry": { "type": "Point", "coordinates": [ -72.970257, 43.0597711 ] } },
{ "type": "Feature", "properties": { "crossing_id": "crossing_0252", "name": "nan", "road_type": "track", "trail_mile": 33.8, "vehicle_access": true, "trailhead": true, "schema_version": "1.0", "crossing_class": "road_crossing" }, "geometry": { "type": "Point", "coordinates": [ -73.0055222, 43.055098799999989 ] } },
{ "type": "Feature", "properties": { "crossing_id": "crossing_0253", "name": "Forest Road 383", "road_type": "track", "trail_mile": 37.1, "vehicle_access": true, "trailhead": true, "schema_version": "1.0", "crossing_class": "road_crossing" }, "geometry": { "type": "Point", "coordinates": [ -72.967809299999985, 43.061060500000011 ] } },
{ "type": "Feature", "properties": { "crossing_id": "crossing_0254", "name": "nan", "road_type": "track", "trail_mile": 34.6, "vehicle_access": true, "trailhead": true, "schema_version": "1.0", "crossing_class": "road_crossing" }, "geometry": { "type": "Point", "coordinates": [ -72.9962428, 43.0558219 ] } },
{ "type": "Feature", "properties": { "crossing_id": "crossing_0255", "name": "Old Long Trail", "road_type": "path", "trail_mile": 192.2, "vehicle_access": true, "trailhead": true, "schema_version": "1.0", "crossing_class": "road_crossing" }, "geometry": { "type": "Point", "coordinates": [ -72.8841555, 44.420893 ] } },
{ "type": "Feature", "properties": { "crossing_id": "crossing_0256", "name": "IP Road", "road_type": "track_grade2", "trail_mile": 42.8, "vehicle_access": true, "trailhead": true, "schema_version": "1.0", "crossing_class": "road_crossing" }, "geometry": { "type": "Point", "coordinates": [ -72.946352799999985, 43.0999616 ] } },
{ "type": "Feature", "properties": { "crossing_id": "crossing_0257", "name": "IP Road", "road_type": "track_grade2", "trail_mile": 38.5, "vehicle_access": true, "trailhead": true, "schema_version": "1.0", "crossing_class": "road_crossing" }, "geometry": { "type": "Point", "coordinates": [ -72.9489862, 43.0686675 ] } },
{ "type": "Feature", "properties": { "crossing_id": "crossing_0258", "name": "nan", "road_type": "track", "trail_mile": 54.8, "vehicle_access": true, "trailhead": true, "schema_version": "1.0", "crossing_class": "road_crossing" }, "geometry": { "type": "Point", "coordinates": [ -72.970887399999981, 43.2067186 ] } },
{ "type": "Feature", "properties": { "crossing_id": "crossing_0259", "name": "nan", "road_type": "track", "trail_mile": 54.3, "vehicle_access": true, "trailhead": true, "schema_version": "1.0", "crossing_class": "road_crossing" }, "geometry": { "type": "Point", "coordinates": [ -72.9734997, 43.2008708 ] } },
{ "type": "Feature", "properties": { "crossing_id": "crossing_0260", "name": "nan", "road_type": "track", "trail_mile": 48.8, "vehicle_access": true, "trailhead": true, "schema_version": "1.0", "crossing_class": "road_crossing" }, "geometry": { "type": "Point", "coordinates": [ -72.993195200000017, 43.150139 ] } },
{ "type": "Feature", "properties": { "crossing_id": "crossing_0261", "name": "nan", "road_type": "track", "trail_mile": 3.1, "vehicle_access": true, "trailhead": true, "schema_version": "1.0", "crossing_class": "road_crossing" }, "geometry": { "type": "Point", "coordinates": [ -73.1330111, 42.7742654 ] } },
{ "type": "Feature", "properties": { "crossing_id": "crossing_0262", "name": "nan", "road_type": "path", "trail_mile": 196.3, "vehicle_access": true, "trailhead": true, "schema_version": "1.0", "crossing_class": "road_crossing" }, "geometry": { "type": "Point", "coordinates": [ -72.843683499999983, 44.442741 ] } },
{ "type": "Feature", "properties": { "crossing_id": "crossing_0263", "name": "Stratton Arlington Road", "road_type": "unclassified", "trail_mile": 37.0, "vehicle_access": true, "trailhead": true, "schema_version": "1.0", "crossing_class": "road_crossing" }, "geometry": { "type": "Point", "coordinates": [ -72.9692213, 43.0612669 ] } },
{ "type": "Feature", "properties": { "crossing_id": "crossing_0264", "name": "Gap Road", "road_type": "secondary", "trail_mile": 127.4, "vehicle_access": true, "trailhead": true, "schema_version": "1.0", "crossing_class": "road_crossing" }, "geometry": { "type": "Point", "coordinates": [ -72.9669892, 43.8398795 ] } },
{ "type": "Feature", "properties": { "crossing_id": "crossing_0265", "name": "Lincoln Gap Road", "road_type": "tertiary", "trail_mile": 155.6, "vehicle_access": true, "trailhead": true, "schema_version": "1.0", "crossing_class": "road_crossing" }, "geometry": { "type": "Point", "coordinates": [ -72.928243, 44.0948675 ] } },
{ "type": "Feature", "properties": { "crossing_id": "crossing_0266", "name": "Catamount Trail", "road_type": "path", "trail_mile": 170.8, "vehicle_access": true, "trailhead": true, "schema_version": "1.0", "crossing_class": "road_crossing" }, "geometry": { "type": "Point", "coordinates": [ -72.9086962, 44.2413397 ] } },
{ "type": "Feature", "properties": { "crossing_id": "crossing_0267", "name": "nan", "road_type": "path", "trail_mile": 22.3, "vehicle_access": true, "trailhead": true, "schema_version": "1.0", "crossing_class": "road_crossing" }, "geometry": { "type": "Point", "coordinates": [ -73.061133699999985, 42.9575198 ] } },
{ "type": "Feature", "properties": { "crossing_id": "crossing_0268", "name": "nan", "road_type": "path", "trail_mile": 76.3, "vehicle_access": true, "trailhead": true, "schema_version": "1.0", "crossing_class": "road_crossing" }, "geometry": { "type": "Point", "coordinates": [ -72.9378961, 43.4115807 ] } },
{ "type": "Feature", "properties": { "crossing_id": "crossing_0269", "name": "nan", "road_type": "path", "trail_mile": 76.0, "vehicle_access": true, "trailhead": true, "schema_version": "1.0", "crossing_class": "road_crossing" }, "geometry": { "type": "Point", "coordinates": [ -72.944143, 43.4099971 ] } },
{ "type": "Feature", "properties": { "crossing_id": "crossing_0270", "name": "nan", "road_type": "path", "trail_mile": 85.6, "vehicle_access": true, "trailhead": true, "schema_version": "1.0", "crossing_class": "road_crossing" }, "geometry": { "type": "Point", "coordinates": [ -72.925558099999989, 43.4947889 ] } },
{ "type": "Feature", "properties": { "crossing_id": "crossing_0271", "name": "nan", "road_type": "path", "trail_mile": 85.0, "vehicle_access": true, "trailhead": true, "schema_version": "1.0", "crossing_class": "road_crossing" }, "geometry": { "type": "Point", "coordinates": [ -72.925170499999979, 43.4880706 ] } },
{ "type": "Feature", "properties": { "crossing_id": "crossing_0272", "name": "nan", "road_type": "path", "trail_mile": 188.0, "vehicle_access": true, "trailhead": true, "schema_version": "1.0", "crossing_class": "road_crossing" }, "geometry": { "type": "Point", "coordinates": [ -72.911006199999989, 44.3842537 ] } },
{ "type": "Feature", "properties": { "crossing_id": "crossing_0273", "name": "nan", "road_type": "track", "trail_mile": 220.5, "vehicle_access": true, "trailhead": true, "schema_version": "1.0", "crossing_class": "road_crossing" }, "geometry": { "type": "Point", "coordinates": [ -72.724185, 44.610153 ] } },
{ "type": "Feature", "properties": { "crossing_id": "crossing_0274", "name": "Old Fayston Rd/Huntington Gap Road (Class IV)", "road_type": "track", "trail_mile": 170.8, "vehicle_access": true, "trailhead": true, "schema_version": "1.0", "crossing_class": "road_crossing" }, "geometry": { "type": "Point", "coordinates": [ -72.9086962, 44.2413397 ] } },
{ "type": "Feature", "properties": { "crossing_id": "crossing_0275", "name": "Prospect Rock Spur", "road_type": "path", "trail_mile": 225.5, "vehicle_access": true, "trailhead": true, "schema_version": "1.0", "crossing_class": "road_crossing" }, "geometry": { "type": "Point", "coordinates": [ -72.7222683, 44.6567597 ] } },
{ "type": "Feature", "properties": { "crossing_id": "crossing_0276", "name": "nan", "road_type": "path", "trail_mile": 187.6, "vehicle_access": true, "trailhead": true, "schema_version": "1.0", "crossing_class": "road_crossing" }, "geometry": { "type": "Point", "coordinates": [ -72.9156154, 44.3824098 ] } },
{ "type": "Feature", "properties": { "crossing_id": "crossing_0277", "name": "nan", "road_type": "path", "trail_mile": 160.2, "vehicle_access": true, "trailhead": true, "schema_version": "1.0", "crossing_class": "road_crossing" }, "geometry": { "type": "Point", "coordinates": [ -72.927582700000016, 44.1422257 ] } },
{ "type": "Feature", "properties": { "crossing_id": "crossing_0278", "name": "Old Job Trail", "road_type": "path", "trail_mile": 65.6, "vehicle_access": true, "trailhead": true, "schema_version": "1.0", "crossing_class": "road_crossing" }, "geometry": { "type": "Point", "coordinates": [ -72.958315099999979, 43.3067518 ] } },
{ "type": "Feature", "properties": { "crossing_id": "crossing_0279", "name": "Green Mountain Trail", "road_type": "path", "trail_mile": 75.1, "vehicle_access": true, "trailhead": true, "schema_version": "1.0", "crossing_class": "road_crossing" }, "geometry": { "type": "Point", "coordinates": [ -72.9547089, 43.4026212 ] } },
{ "type": "Feature", "properties": { "crossing_id": "crossing_0280", "name": "nan", "road_type": "footway", "trail_mile": 57.8, "vehicle_access": true, "trailhead": true, "schema_version": "1.0", "crossing_class": "road_crossing" }, "geometry": { "type": "Point", "coordinates": [ -72.9400059, 43.2278888 ] } },
{ "type": "Feature", "properties": { "crossing_id": "crossing_0281", "name": "Long Trail Temporary Realignment", "road_type": "path", "trail_mile": 186.8, "vehicle_access": true, "trailhead": true, "schema_version": "1.0", "crossing_class": "road_crossing" }, "geometry": { "type": "Point", "coordinates": [ -72.916615, 44.377677 ] } }
]
}
