{
"type": "FeatureCollection",
"name": "crossings_refined",
"crs": { "type": "name", "properties": { "name": "urn:ogc:def:crs:OGC:1.3:CRS84" } },
"features": [
{ "type": "Feature", "properties": { "crossing_id": "crossing_0000", "name": "unknown", "road_type": "track", "trail_mile": 7.3, "vehicle_access": true, "trailhead": true, "schema_version": "0.2-draft", "fclass": "track", "road_weight": 3, "likely_hitchable": false, "winter_access": false, "access_score": 0.3 }, "geometry": { "type": "Point", "coordinates": [ -73.1238627, 42.8277653 ] } },
{ "type": "Feature", "properties": { "crossing_id": "crossing_0001", "name": "Old Rootville Road", "road_type": "track", "trail_mile": 45.4, "vehicle_access": true, "trailhead": true, "schema_version": "0.2-draft", "fclass": "track", "road_weight": 3, "likely_hitchable": false, "winter_access": false, "access_score": 0.3 }, "geometry": { "type": "Point", "coordinates": [ -73.008364599999979, 43.1540226 ] } },
{ "type": "Feature", "properties": { "crossing_id": "crossing_0002", "name": "Vermont Route 125", "road_type": "secondary", "trail_mile": 125.4, "vehicle_access": true, "trailhead": true, "schema_version": "0.2-draft", "fclass": "secondary", "road_weight": 7, "likely_hitchable": true, "winter_access": true, "access_score": 0.7 }, "geometry": { "type": "Point", "coordinates": [ -72.9500135, 43.9370099 ] } },
{ "type": "Feature", "properties": { "crossing_id": "crossing_0003", "name": "Stage Coach Road", "road_type": "track", "trail_mile": 9.7, "vehicle_access": true, "trailhead": true, "schema_version": "0.2-draft", "fclass": "track", "road_weight": 3, "likely_hitchable": false, "winter_access": false, "access_score": 0.3 }, "geometry": { "type": "Point", "coordinates": [ -73.118626099999986, 42.850199 ] } },
{ "type": "Feature", "properties": { "crossing_id": "crossing_0004", "name": "Mad Tom Notch Road", "road_type": "residential", "trail_mile": 55.1, "vehicle_access": true, "trailhead": true, "schema_version": "0.2-draft", "fclass": "residential", "road_weight": 5, "likely_hitchable": true, "winter_access": false, "access_score": 0.5 }, "geometry": { "type": "Point", "coordinates": [ -72.9383826, 43.2577239 ] } },
{ "type": "Feature", "properties": { "crossing_id": "crossing_0005", "name": "unknown", "road_type": "service", "trail_mile": 171.2, "vehicle_access": true, "trailhead": true, "schema_version": "0.2-draft", "fclass": "service", "road_weight": 4, "likely_hitchable": false, "winter_access": false, "access_score": 0.4 }, "geometry": { "type": "Point", "coordinates": [ -72.9153557, 44.382708 ] } },
{ "type": "Feature", "properties": { "crossing_id": "crossing_0006", "name": "Notch Road", "road_type": "residential", "trail_mile": 171.3, "vehicle_access": true, "trailhead": true, "schema_version": "0.2-draft", "fclass": "residential", "road_weight": 5, "likely_hitchable": true, "winter_access": false, "access_score": 0.5 }, "geometry": { "type": "Point", "coordinates": [ -72.914699, 44.383635 ] } },
{ "type": "Feature", "properties": { "crossing_id": "crossing_0007", "name": "Vermont Route 17", "road_type": "secondary", "trail_mile": 152.1, "vehicle_access": true, "trailhead": true, "schema_version": "0.2-draft", "fclass": "secondary", "road_weight": 7, "likely_hitchable": true, "winter_access": true, "access_score": 0.7 }, "geometry": { "type": "Point", "coordinates": [ -72.9316006, 44.2110116 ] } },
{ "type": "Feature", "properties": { "crossing_id": "crossing_0008", "name": "unknown", "road_type": "track", "trail_mile": 200.4, "vehicle_access": true, "trailhead": true, "schema_version": "0.2-draft", "fclass": "track", "road_weight": 3, "likely_hitchable": false, "winter_access": false, "access_score": 0.3 }, "geometry": { "type": "Point", "coordinates": [ -72.7181316, 44.6028654 ] } },
{ "type": "Feature", "properties": { "crossing_id": "crossing_0009", "name": "unknown", "road_type": "service", "trail_mile": 203.5, "vehicle_access": true, "trailhead": true, "schema_version": "0.2-draft", "fclass": "service", "road_weight": 4, "likely_hitchable": false, "winter_access": false, "access_score": 0.4 }, "geometry": { "type": "Point", "coordinates": [ -72.723208, 44.639407 ] } },
{ "type": "Feature", "properties": { "crossing_id": "crossing_0010", "name": "Duxbury Road", "road_type": "tertiary", "trail_mile": 168.1, "vehicle_access": true, "trailhead": true, "schema_version": "0.2-draft", "fclass": "tertiary", "road_weight": 6, "likely_hitchable": true, "winter_access": true, "access_score": 0.6 }, "geometry": { "type": "Point", "coordinates": [ -72.8792776, 44.3697031 ] } },
{ "type": "Feature", "properties": { "crossing_id": "crossing_0011", "name": "unknown", "road_type": "motorway", "trail_mile": 171.1, "vehicle_access": true, "trailhead": true, "schema_version": "0.2-draft", "fclass": "motorway", "road_weight": 10, "likely_hitchable": true, "winter_access": true, "access_score": 1.0 }, "geometry": { "type": "Point", "coordinates": [ -72.916767444556143, 44.380719411100387 ] } },
{ "type": "Feature", "properties": { "crossing_id": "crossing_0012", "name": "Belvidere Road", "road_type": "secondary", "trail_mile": 223.5, "vehicle_access": true, "trailhead": true, "schema_version": "0.2-draft", "fclass": "secondary", "road_weight": 7, "likely_hitchable": true, "winter_access": true, "access_score": 0.7 }, "geometry": { "type": "Point", "coordinates": [ -72.586855, 44.763791 ] } },
{ "type": "Feature", "properties": { "crossing_id": "crossing_0013", "name": "Plot Road", "road_type": "residential", "trail_mile": 208.2, "vehicle_access": true, "trailhead": true, "schema_version": "0.2-draft", "fclass": "residential", "road_weight": 5, "likely_hitchable": true, "winter_access": false, "access_score": 0.5 }, "geometry": { "type": "Point", "coordinates": [ -72.7194922, 44.6813676 ] } },
{ "type": "Feature", "properties": { "crossing_id": "crossing_0014", "name": "Hog Back Road", "road_type": "tertiary", "trail_mile": 204.9, "vehicle_access": true, "trailhead": true, "schema_version": "0.2-draft", "fclass": "tertiary", "road_weight": 6, "likely_hitchable": true, "winter_access": true, "access_score": 0.6 }, "geometry": { "type": "Point", "coordinates": [ -72.7287879, 44.6521442 ] } },
{ "type": "Feature", "properties": { "crossing_id": "crossing_0015", "name": "Prospect Rock Road", "road_type": "residential", "trail_mile": 205.9, "vehicle_access": true, "trailhead": true, "schema_version": "0.2-draft", "fclass": "residential", "road_weight": 5, "likely_hitchable": true, "winter_access": false, "access_score": 0.5 }, "geometry": { "type": "Point", "coordinates": [ -72.7225538, 44.6580792 ] } },
{ "type": "Feature", "properties": { "crossing_id": "crossing_0016", "name": "Codding Hollow Road", "road_type": "residential", "trail_mile": 210.4, "vehicle_access": true, "trailhead": true, "schema_version": "0.2-draft", "fclass": "residential", "road_weight": 5, "likely_hitchable": true, "winter_access": false, "access_score": 0.5 }, "geometry": { "type": "Point", "coordinates": [ -72.7114559, 44.7078154 ] } },
{ "type": "Feature", "properties": { "crossing_id": "crossing_0017", "name": "Vermont Route 105", "road_type": "primary", "trail_mile": 246.7, "vehicle_access": true, "trailhead": true, "schema_version": "0.2-draft", "fclass": "primary", "road_weight": 8, "likely_hitchable": true, "winter_access": true, "access_score": 0.8 }, "geometry": { "type": "Point", "coordinates": [ -72.5040809, 44.9866699 ] } },
{ "type": "Feature", "properties": { "crossing_id": "crossing_0018", "name": "Vermont Route 242", "road_type": "secondary", "trail_mile": 238.6, "vehicle_access": true, "trailhead": true, "schema_version": "0.2-draft", "fclass": "secondary", "road_weight": 7, "likely_hitchable": true, "winter_access": true, "access_score": 0.7 }, "geometry": { "type": "Point", "coordinates": [ -72.504206, 44.912654 ] } },
{ "type": "Feature", "properties": { "crossing_id": "crossing_0019", "name": "Route 58", "road_type": "tertiary", "trail_mile": 232.2, "vehicle_access": true, "trailhead": true, "schema_version": "0.2-draft", "fclass": "tertiary", "road_weight": 6, "likely_hitchable": true, "winter_access": true, "access_score": 0.6 }, "geometry": { "type": "Point", "coordinates": [ -72.525149, 44.84146 ] } },
{ "type": "Feature", "properties": { "crossing_id": "crossing_0020", "name": "South Park Road", "road_type": "residential", "trail_mile": 101.6, "vehicle_access": true, "trailhead": true, "schema_version": "0.2-draft", "fclass": "residential", "road_weight": 5, "likely_hitchable": true, "winter_access": false, "access_score": 0.5 }, "geometry": { "type": "Point", "coordinates": [ -72.8614181, 43.7140292 ] } },
{ "type": "Feature", "properties": { "crossing_id": "crossing_0021", "name": "Forest Road 384", "road_type": "track", "trail_mile": 33.1, "vehicle_access": true, "trailhead": true, "schema_version": "0.2-draft", "fclass": "track", "road_weight": 3, "likely_hitchable": false, "winter_access": false, "access_score": 0.3 }, "geometry": { "type": "Point", "coordinates": [ -72.971634599999987, 43.0538393 ] } },
{ "type": "Feature", "properties": { "crossing_id": "crossing_0022", "name": "Seasonal Forestry Road", "road_type": "residential", "trail_mile": 66.2, "vehicle_access": true, "trailhead": true, "schema_version": "0.2-draft", "fclass": "residential", "road_weight": 5, "likely_hitchable": true, "winter_access": false, "access_score": 0.5 }, "geometry": { "type": "Point", "coordinates": [ -72.961266600000016, 43.3712987 ] } },
{ "type": "Feature", "properties": { "crossing_id": "crossing_0023", "name": "Sugar Hill Road", "road_type": "residential", "trail_mile": 74.1, "vehicle_access": true, "trailhead": true, "schema_version": "0.2-draft", "fclass": "residential", "road_weight": 5, "likely_hitchable": true, "winter_access": false, "access_score": 0.5 }, "geometry": { "type": "Point", "coordinates": [ -72.935771799999984, 43.4548576 ] } },
{ "type": "Feature", "properties": { "crossing_id": "crossing_0024", "name": "Lottery Road", "road_type": "residential", "trail_mile": 81.9, "vehicle_access": true, "trailhead": true, "schema_version": "0.2-draft", "fclass": "residential", "road_weight": 5, "likely_hitchable": true, "winter_access": false, "access_score": 0.5 }, "geometry": { "type": "Point", "coordinates": [ -72.899795, 43.527793 ] } },
{ "type": "Feature", "properties": { "crossing_id": "crossing_0025", "name": "Cold River Road", "road_type": "tertiary", "trail_mile": 83.9, "vehicle_access": true, "trailhead": true, "schema_version": "0.2-draft", "fclass": "tertiary", "road_weight": 6, "likely_hitchable": true, "winter_access": true, "access_score": 0.6 }, "geometry": { "type": "Point", "coordinates": [ -72.872242, 43.537763 ] } },
{ "type": "Feature", "properties": { "crossing_id": "crossing_0026", "name": "Clement Shelter Road", "road_type": "residential", "trail_mile": 86.2, "vehicle_access": true, "trailhead": true, "schema_version": "0.2-draft", "fclass": "residential", "road_weight": 5, "likely_hitchable": true, "winter_access": false, "access_score": 0.5 }, "geometry": { "type": "Point", "coordinates": [ -72.8551287, 43.557217 ] } },
{ "type": "Feature", "properties": { "crossing_id": "crossing_0027", "name": "unknown", "road_type": "service", "trail_mile": 187.3, "vehicle_access": true, "trailhead": true, "schema_version": "0.2-draft", "fclass": "service", "road_weight": 4, "likely_hitchable": false, "winter_access": false, "access_score": 0.4 }, "geometry": { "type": "Point", "coordinates": [ -72.8156303, 44.5279162 ] } },
{ "type": "Feature", "properties": { "crossing_id": "crossing_0028", "name": "unknown", "road_type": "service", "trail_mile": 187.1, "vehicle_access": true, "trailhead": true, "schema_version": "0.2-draft", "fclass": "service", "road_weight": 4, "likely_hitchable": false, "winter_access": false, "access_score": 0.4 }, "geometry": { "type": "Point", "coordinates": [ -72.8164212, 44.5251848 ] } },
{ "type": "Feature", "properties": { "crossing_id": "crossing_0029", "name": "Mountain Road", "road_type": "secondary", "trail_mile": 190.8, "vehicle_access": true, "trailhead": true, "schema_version": "0.2-draft", "fclass": "secondary", "road_weight": 7, "likely_hitchable": true, "winter_access": true, "access_score": 0.7 }, "geometry": { "type": "Point", "coordinates": [ -72.790378299999986, 44.5355636 ] } },
{ "type": "Feature", "properties": { "crossing_id": "crossing_0030", "name": "Upper Chilcoot", "road_type": "track", "trail_mile": 196.2, "vehicle_access": true, "trailhead": true, "schema_version": "0.2-draft", "fclass": "track", "road_weight": 3, "likely_hitchable": false, "winter_access": false, "access_score": 0.3 }, "geometry": { "type": "Point", "coordinates": [ -72.753969123569888, 44.567961869849647 ] } },
{ "type": "Feature", "properties": { "crossing_id": "crossing_0031", "name": "Upper Chilcoot", "road_type": "track", "trail_mile": 195.8, "vehicle_access": true, "trailhead": true, "schema_version": "0.2-draft", "fclass": "track", "road_weight": 3, "likely_hitchable": false, "winter_access": false, "access_score": 0.3 }, "geometry": { "type": "Point", "coordinates": [ -72.7562741, 44.5635283 ] } },
{ "type": "Feature", "properties": { "crossing_id": "crossing_0032", "name": "Old Turnpike Road", "road_type": "track", "trail_mile": 99.9, "vehicle_access": true, "trailhead": true, "schema_version": "0.2-draft", "fclass": "track", "road_weight": 3, "likely_hitchable": false, "winter_access": false, "access_score": 0.3 }, "geometry": { "type": "Point", "coordinates": [ -72.8561087, 43.6957877 ] } },
{ "type": "Feature", "properties": { "crossing_id": "crossing_0033", "name": "Notch Road", "road_type": "residential", "trail_mile": 171.0, "vehicle_access": true, "trailhead": true, "schema_version": "0.2-draft", "fclass": "residential", "road_weight": 5, "likely_hitchable": true, "winter_access": false, "access_score": 0.5 }, "geometry": { "type": "Point", "coordinates": [ -72.91690389999998, 44.3804071 ] } },
{ "type": "Feature", "properties": { "crossing_id": "crossing_0034", "name": "U.S. Route 4", "road_type": "trunk", "trail_mile": 96.8, "vehicle_access": true, "trailhead": true, "schema_version": "0.2-draft", "fclass": "trunk", "road_weight": 9, "likely_hitchable": true, "winter_access": true, "access_score": 0.9 }, "geometry": { "type": "Point", "coordinates": [ -72.8501179, 43.6668357 ] } },
{ "type": "Feature", "properties": { "crossing_id": "crossing_0035", "name": "Theodore Roosevelt Highway", "road_type": "primary", "trail_mile": 170.8, "vehicle_access": true, "trailhead": true, "schema_version": "0.2-draft", "fclass": "primary", "road_weight": 8, "likely_hitchable": true, "winter_access": true, "access_score": 0.8 }, "geometry": { "type": "Point", "coordinates": [ -72.9119267, 44.3792533 ] } },
{ "type": "Feature", "properties": { "crossing_id": "crossing_0036", "name": "Duxbury Road", "road_type": "tertiary", "trail_mile": 170.1, "vehicle_access": true, "trailhead": true, "schema_version": "0.2-draft", "fclass": "tertiary", "road_weight": 6, "likely_hitchable": true, "winter_access": true, "access_score": 0.6 }, "geometry": { "type": "Point", "coordinates": [ -72.9121051, 44.3761249 ] } },
{ "type": "Feature", "properties": { "crossing_id": "crossing_0037", "name": "Vermont Route 15 West", "road_type": "primary", "trail_mile": 204.3, "vehicle_access": true, "trailhead": true, "schema_version": "0.2-draft", "fclass": "primary", "road_weight": 8, "likely_hitchable": true, "winter_access": true, "access_score": 0.8 }, "geometry": { "type": "Point", "coordinates": [ -72.7283826, 44.6449374 ] } },
{ "type": "Feature", "properties": { "crossing_id": "crossing_0038", "name": "Catamount Trail", "road_type": "track", "trail_mile": 86.9, "vehicle_access": true, "trailhead": true, "schema_version": "0.2-draft", "fclass": "track", "road_weight": 3, "likely_hitchable": false, "winter_access": false, "access_score": 0.3 }, "geometry": { "type": "Point", "coordinates": [ -72.8494425, 43.5647498 ] } },
{ "type": "Feature", "properties": { "crossing_id": "crossing_0039", "name": "Duxbury Road", "road_type": "tertiary", "trail_mile": 169.0, "vehicle_access": true, "trailhead": true, "schema_version": "0.2-draft", "fclass": "tertiary", "road_weight": 6, "likely_hitchable": true, "winter_access": true, "access_score": 0.6 }, "geometry": { "type": "Point", "coordinates": [ -72.895844199999985, 44.3716539 ] } },
{ "type": "Feature", "properties": { "crossing_id": "crossing_0040", "name": "Duxbury Road", "road_type": "tertiary", "trail_mile": 170.5, "vehicle_access": true, "trailhead": true, "schema_version": "0.2-draft", "fclass": "tertiary", "road_weight": 6, "likely_hitchable": true, "winter_access": true, "access_score": 0.6 }, "geometry": { "type": "Point", "coordinates": [ -72.917281, 44.37832 ] } },
{ "type": "Feature", "properties": { "crossing_id": "crossing_0041", "name": "Link to Little Pond", "road_type": "track", "trail_mile": 17.2, "vehicle_access": true, "trailhead": true, "schema_version": "0.2-draft", "fclass": "track", "road_weight": 3, "likely_hitchable": false, "winter_access": false, "access_score": 0.3 }, "geometry": { "type": "Point", "coordinates": [ -73.076337, 42.9207773 ] } },
{ "type": "Feature", "properties": { "crossing_id": "crossing_0042", "name": "West Settlement Road", "road_type": "residential", "trail_mile": 203.7, "vehicle_access": true, "trailhead": true, "schema_version": "0.2-draft", "fclass": "residential", "road_weight": 5, "likely_hitchable": true, "winter_access": false, "access_score": 0.5 }, "geometry": { "type": "Point", "coordinates": [ -72.7216143, 44.6417247 ] } },
{ "type": "Feature", "properties": { "crossing_id": "crossing_0043", "name": "unknown", "road_type": "service", "trail_mile": 203.4, "vehicle_access": true, "trailhead": true, "schema_version": "0.2-draft", "fclass": "service", "road_weight": 4, "likely_hitchable": false, "winter_access": false, "access_score": 0.4 }, "geometry": { "type": "Point", "coordinates": [ -72.725242, 44.637991 ] } },
{ "type": "Feature", "properties": { "crossing_id": "crossing_0044", "name": "unknown", "road_type": "track", "trail_mile": 100.1, "vehicle_access": true, "trailhead": true, "schema_version": "0.2-draft", "fclass": "track", "road_weight": 3, "likely_hitchable": false, "winter_access": false, "access_score": 0.3 }, "geometry": { "type": "Point", "coordinates": [ -72.85882, 43.696909 ] } },
{ "type": "Feature", "properties": { "crossing_id": "crossing_0045", "name": "Vermont Route 11 30", "road_type": "primary", "trail_mile": 50.0, "vehicle_access": true, "trailhead": true, "schema_version": "0.2-draft", "fclass": "primary", "road_weight": 8, "likely_hitchable": true, "winter_access": true, "access_score": 0.8 }, "geometry": { "type": "Point", "coordinates": [ -72.9707674, 43.2068155 ] } },
{ "type": "Feature", "properties": { "crossing_id": "crossing_0046", "name": "Seasonal Forestry Road", "road_type": "residential", "trail_mile": 66.3, "vehicle_access": true, "trailhead": true, "schema_version": "0.2-draft", "fclass": "residential", "road_weight": 5, "likely_hitchable": true, "winter_access": false, "access_score": 0.5 }, "geometry": { "type": "Point", "coordinates": [ -72.962529, 43.3728011 ] } },
{ "type": "Feature", "properties": { "crossing_id": "crossing_0047", "name": "unknown", "road_type": "service", "trail_mile": 44.6, "vehicle_access": true, "trailhead": true, "schema_version": "0.2-draft", "fclass": "service", "road_weight": 4, "likely_hitchable": false, "winter_access": false, "access_score": 0.4 }, "geometry": { "type": "Point", "coordinates": [ -72.9939197, 43.1500473 ] } },
{ "type": "Feature", "properties": { "crossing_id": "crossing_0048", "name": "Vermont Route 103", "road_type": "trunk", "trail_mile": 80.1, "vehicle_access": true, "trailhead": true, "schema_version": "0.2-draft", "fclass": "trunk", "road_weight": 9, "likely_hitchable": true, "winter_access": true, "access_score": 0.9 }, "geometry": { "type": "Point", "coordinates": [ -72.92501, 43.5214414 ] } },
{ "type": "Feature", "properties": { "crossing_id": "crossing_0049", "name": "unknown", "road_type": "track", "trail_mile": 218.3, "vehicle_access": true, "trailhead": true, "schema_version": "0.2-draft", "fclass": "track", "road_weight": 3, "likely_hitchable": false, "winter_access": false, "access_score": 0.3 }, "geometry": { "type": "Point", "coordinates": [ -72.644835, 44.7262113 ] } },
{ "type": "Feature", "properties": { "crossing_id": "crossing_0050", "name": "unknown", "road_type": "track", "trail_mile": 218.2, "vehicle_access": true, "trailhead": true, "schema_version": "0.2-draft", "fclass": "track", "road_weight": 3, "likely_hitchable": false, "winter_access": false, "access_score": 0.3 }, "geometry": { "type": "Point", "coordinates": [ -72.6471128, 44.7252353 ] } },
{ "type": "Feature", "properties": { "crossing_id": "crossing_0051", "name": "unknown", "road_type": "track", "trail_mile": 8.5, "vehicle_access": true, "trailhead": true, "schema_version": "0.2-draft", "fclass": "track", "road_weight": 3, "likely_hitchable": false, "winter_access": false, "access_score": 0.3 }, "geometry": { "type": "Point", "coordinates": [ -73.1126778, 42.8407523 ] } },
{ "type": "Feature", "properties": { "crossing_id": "crossing_0052", "name": "unknown", "road_type": "track", "trail_mile": 87.2, "vehicle_access": true, "trailhead": true, "schema_version": "0.2-draft", "fclass": "track", "road_weight": 3, "likely_hitchable": false, "winter_access": false, "access_score": 0.3 }, "geometry": { "type": "Point", "coordinates": [ -72.8432642, 43.5667287 ] } },
{ "type": "Feature", "properties": { "crossing_id": "crossing_0053", "name": "Clement Shelter Road", "road_type": "residential", "trail_mile": 86.1, "vehicle_access": true, "trailhead": true, "schema_version": "0.2-draft", "fclass": "residential", "road_weight": 5, "likely_hitchable": true, "winter_access": false, "access_score": 0.5 }, "geometry": { "type": "Point", "coordinates": [ -72.85264, 43.557221 ] } },
{ "type": "Feature", "properties": { "crossing_id": "crossing_0054", "name": "Catamount Trail", "road_type": "track", "trail_mile": 87.0, "vehicle_access": true, "trailhead": true, "schema_version": "0.2-draft", "fclass": "track", "road_weight": 3, "likely_hitchable": false, "winter_access": false, "access_score": 0.3 }, "geometry": { "type": "Point", "coordinates": [ -72.8478618, 43.564775 ] } },
{ "type": "Feature", "properties": { "crossing_id": "crossing_0055", "name": "Snuffy's", "road_type": "track", "trail_mile": 194.5, "vehicle_access": true, "trailhead": true, "schema_version": "0.2-draft", "fclass": "track", "road_weight": 3, "likely_hitchable": false, "winter_access": false, "access_score": 0.3 }, "geometry": { "type": "Point", "coordinates": [ -72.7760667, 44.5570441 ] } },
{ "type": "Feature", "properties": { "crossing_id": "crossing_0056", "name": "unknown", "road_type": "track", "trail_mile": 63.3, "vehicle_access": true, "trailhead": true, "schema_version": "0.2-draft", "fclass": "track", "road_weight": 3, "likely_hitchable": false, "winter_access": false, "access_score": 0.3 }, "geometry": { "type": "Point", "coordinates": [ -72.9534646, 43.3448725 ] } },
{ "type": "Feature", "properties": { "crossing_id": "crossing_0057", "name": "Vermont Route 140 East", "road_type": "secondary", "trail_mile": 74.2, "vehicle_access": true, "trailhead": true, "schema_version": "0.2-draft", "fclass": "secondary", "road_weight": 7, "likely_hitchable": true, "winter_access": true, "access_score": 0.7 }, "geometry": { "type": "Point", "coordinates": [ -72.9343032, 43.4556725 ] } },
{ "type": "Feature", "properties": { "crossing_id": "crossing_0058", "name": "unknown", "road_type": "track", "trail_mile": 20.8, "vehicle_access": true, "trailhead": true, "schema_version": "0.2-draft", "fclass": "track", "road_weight": 3, "likely_hitchable": false, "winter_access": false, "access_score": 0.3 }, "geometry": { "type": "Point", "coordinates": [ -73.0582056, 42.9629726 ] } },
{ "type": "Feature", "properties": { "crossing_id": "crossing_0059", "name": "Vermont Route 9", "road_type": "trunk", "trail_mile": 13.0, "vehicle_access": true, "trailhead": true, "schema_version": "0.2-draft", "fclass": "trunk", "road_weight": 9, "likely_hitchable": true, "winter_access": true, "access_score": 0.9 }, "geometry": { "type": "Point", "coordinates": [ -73.1158745, 42.8850325 ] } },
{ "type": "Feature", "properties": { "crossing_id": "crossing_0060", "name": "unknown", "road_type": "track", "trail_mile": 33.6, "vehicle_access": true, "trailhead": true, "schema_version": "0.2-draft", "fclass": "track", "road_weight": 3, "likely_hitchable": false, "winter_access": false, "access_score": 0.3 }, "geometry": { "type": "Point", "coordinates": [ -72.970257, 43.0597711 ] } },
{ "type": "Feature", "properties": { "crossing_id": "crossing_0061", "name": "unknown", "road_type": "track", "trail_mile": 30.9, "vehicle_access": true, "trailhead": true, "schema_version": "0.2-draft", "fclass": "track", "road_weight": 3, "likely_hitchable": false, "winter_access": false, "access_score": 0.3 }, "geometry": { "type": "Point", "coordinates": [ -73.0055222, 43.055098799999989 ] } },
{ "type": "Feature", "properties": { "crossing_id": "crossing_0062", "name": "Forest Road 383", "road_type": "track", "trail_mile": 33.8, "vehicle_access": true, "trailhead": true, "schema_version": "0.2-draft", "fclass": "track", "road_weight": 3, "likely_hitchable": false, "winter_access": false, "access_score": 0.3 }, "geometry": { "type": "Point", "coordinates": [ -72.967809299999985, 43.061060500000011 ] } },
{ "type": "Feature", "properties": { "crossing_id": "crossing_0063", "name": "unknown", "road_type": "track", "trail_mile": 31.6, "vehicle_access": true, "trailhead": true, "schema_version": "0.2-draft", "fclass": "track", "road_weight": 3, "likely_hitchable": false, "winter_access": false, "access_score": 0.3 }, "geometry": { "type": "Point", "coordinates": [ -72.9962428, 43.0558219 ] } },
{ "type": "Feature", "properties": { "crossing_id": "crossing_0064", "name": "IP Road", "road_type": "track_grade2", "trail_mile": 39.1, "vehicle_access": false, "trailhead": true, "schema_version": "0.2-draft", "fclass": "track_grade2", "road_weight": 2, "likely_hitchable": false, "winter_access": false, "access_score": 0.2 }, "geometry": { "type": "Point", "coordinates": [ -72.946352799999985, 43.0999616 ] } },
{ "type": "Feature", "properties": { "crossing_id": "crossing_0065", "name": "IP Road", "road_type": "track_grade2", "trail_mile": 35.1, "vehicle_access": false, "trailhead": true, "schema_version": "0.2-draft", "fclass": "track_grade2", "road_weight": 2, "likely_hitchable": false, "winter_access": false, "access_score": 0.2 }, "geometry": { "type": "Point", "coordinates": [ -72.9489862, 43.0686675 ] } },
{ "type": "Feature", "properties": { "crossing_id": "crossing_0066", "name": "unknown", "road_type": "track", "trail_mile": 49.6, "vehicle_access": true, "trailhead": true, "schema_version": "0.2-draft", "fclass": "track", "road_weight": 3, "likely_hitchable": false, "winter_access": false, "access_score": 0.3 }, "geometry": { "type": "Point", "coordinates": [ -72.9734997, 43.2008708 ] } },
{ "type": "Feature", "properties": { "crossing_id": "crossing_0067", "name": "unknown", "road_type": "track", "trail_mile": 2.8, "vehicle_access": true, "trailhead": true, "schema_version": "0.2-draft", "fclass": "track", "road_weight": 3, "likely_hitchable": false, "winter_access": false, "access_score": 0.3 }, "geometry": { "type": "Point", "coordinates": [ -73.1330111, 42.7742654 ] } },
{ "type": "Feature", "properties": { "crossing_id": "crossing_0068", "name": "Gap Road", "road_type": "secondary", "trail_mile": 116.2, "vehicle_access": true, "trailhead": true, "schema_version": "0.2-draft", "fclass": "secondary", "road_weight": 7, "likely_hitchable": true, "winter_access": true, "access_score": 0.7 }, "geometry": { "type": "Point", "coordinates": [ -72.9669892, 43.8398795 ] } },
{ "type": "Feature", "properties": { "crossing_id": "crossing_0069", "name": "Lincoln Gap Road", "road_type": "tertiary", "trail_mile": 141.9, "vehicle_access": true, "trailhead": true, "schema_version": "0.2-draft", "fclass": "tertiary", "road_weight": 6, "likely_hitchable": true, "winter_access": true, "access_score": 0.6 }, "geometry": { "type": "Point", "coordinates": [ -72.928243, 44.0948675 ] } },
{ "type": "Feature", "properties": { "crossing_id": "crossing_0070", "name": "unknown", "road_type": "track", "trail_mile": 201.2, "vehicle_access": true, "trailhead": true, "schema_version": "0.2-draft", "fclass": "track", "road_weight": 3, "likely_hitchable": false, "winter_access": false, "access_score": 0.3 }, "geometry": { "type": "Point", "coordinates": [ -72.724185, 44.610153 ] } },
{ "type": "Feature", "properties": { "crossing_id": "crossing_0071", "name": "Old Fayston Rd/Huntington Gap Road (Class IV)", "road_type": "track", "trail_mile": 155.8, "vehicle_access": true, "trailhead": true, "schema_version": "0.2-draft", "fclass": "track", "road_weight": 3, "likely_hitchable": false, "winter_access": false, "access_score": 0.3 }, "geometry": { "type": "Point", "coordinates": [ -72.9086962, 44.2413397 ] } }
]
}
